{"type":"FeatureCollection", "features":[
{"type":"Feature","id":0,"geometry":{"type":"Point","coordinates":[103.84426350278228,1.3758189046273048]},"properties":{"FID":0,"average_he":35.0272727273,"carbon_eff":2.03892626818,"density":0.0734192891013,"hdb_street":"ANG MO KIO AVE 6","ORIG_FID":0}},
{"type":"Feature","id":1,"geometry":{"type":"Point","coordinates":[103.84894215677608,1.3729264322180255]},"properties":{"FID":1,"average_he":28.0076923077,"carbon_eff":2.02479597001,"density":0.161595593047,"hdb_street":"ANG MO KIO AVE 8","ORIG_FID":1}},
{"type":"Feature","id":2,"geometry":{"type":"Point","coordinates":[103.8404885109739,1.3822665515716759]},"properties":{"FID":2,"average_he":34.9,"carbon_eff":2.15039924181,"density":0.233951783987,"hdb_street":"ANG MO KIO AVE 9","ORIG_FID":2}},
{"type":"Feature","id":3,"geometry":{"type":"Point","coordinates":[103.9873861718575,1.3887296772959623]},"properties":{"FID":3,"average_he":12.5,"carbon_eff":1.42027366667,"density":0.255057586913,"hdb_street":"CHANGI VILLAGE RD","ORIG_FID":3}},
{"type":"Feature","id":4,"geometry":{"type":"Point","coordinates":[103.93088741309371,1.326705584947306]},"properties":{"FID":4,"average_he":21.46,"carbon_eff":1.51219186678,"density":0.129933854478,"hdb_street":"BEDOK NTH ST 1","ORIG_FID":4}},
{"type":"Feature","id":5,"geometry":{"type":"Point","coordinates":[103.88199748514693,1.3234278041265923]},"properties":{"FID":5,"average_he":57.3,"carbon_eff":1.75520828312,"density":0.437961153674,"hdb_street":"ALJUNIED RD","ORIG_FID":5}},
{"type":"Feature","id":6,"geometry":{"type":"Point","coordinates":[103.85360761948935,1.2968148302883877]},"properties":{"FID":6,"average_he":71.3,"carbon_eff":0.609630948237,"density":0.956234111035,"hdb_street":"BAIN ST","ORIG_FID":6}},
{"type":"Feature","id":7,"geometry":{"type":"Point","coordinates":[103.76748121534864,1.3042603133205768]},"properties":{"FID":7,"average_he":39.8538461538,"carbon_eff":1.69833880256,"density":0.21062182753,"hdb_street":"CLEMENTI WEST ST 1","ORIG_FID":7}},
{"type":"Feature","id":8,"geometry":{"type":"Point","coordinates":[103.88550011133078,1.3076606953829257]},"properties":{"FID":8,"average_he":19.78,"carbon_eff":1.70657545072,"density":0.0840223680571,"hdb_street":"OLD AIRPORT RD","ORIG_FID":8}},
{"type":"Feature","id":9,"geometry":{"type":"Point","coordinates":[103.88728807826449,1.3095130663555858]},"properties":{"FID":9,"average_he":29.3,"carbon_eff":2.13522034486,"density":0.0823933229113,"hdb_street":"JLN DUA","ORIG_FID":9}},
{"type":"Feature","id":10,"geometry":{"type":"Point","coordinates":[103.86232860104799,1.301785906371254]},"properties":{"FID":10,"average_he":49.3,"carbon_eff":1.83788725994,"density":0.0753605086151,"hdb_street":"BEACH RD","ORIG_FID":10}},
{"type":"Feature","id":11,"geometry":{"type":"Point","coordinates":[103.84319481493347,1.28228309945343]},"properties":{"FID":11,"average_he":71.3,"carbon_eff":0.47331889926,"density":0.865297194267,"hdb_street":"SMITH ST","ORIG_FID":11}},
{"type":"Feature","id":12,"geometry":{"type":"Point","coordinates":[103.84257509949124,1.2849968497628574]},"properties":{"FID":12,"average_he":26.5,"carbon_eff":1.09737183044,"density":0.999862071468,"hdb_street":"NEW MKT RD","ORIG_FID":12}},
{"type":"Feature","id":13,"geometry":{"type":"Point","coordinates":[103.85383271815309,1.3007588477954526]},"properties":{"FID":13,"average_he":57.3,"carbon_eff":1.78424176744,"density":0.708422508787,"hdb_street":"QUEEN ST","ORIG_FID":13}},
{"type":"Feature","id":14,"geometry":{"type":"Point","coordinates":[103.80711057565982,1.2815306688840364]},"properties":{"FID":14,"average_he":71.3,"carbon_eff":2.27609436007,"density":0.494486278864,"hdb_street":"DEPOT RD","ORIG_FID":14}},
{"type":"Feature","id":15,"geometry":{"type":"Point","coordinates":[103.8220174355695,1.272186143697581]},"properties":{"FID":15,"average_he":38.9923076923,"carbon_eff":1.93951623159,"density":0.154565725397,"hdb_street":"TELOK BLANGAH RISE","ORIG_FID":15}},
{"type":"Feature","id":16,"geometry":{"type":"Point","coordinates":[103.9538293068473,1.344471624322608]},"properties":{"FID":16,"average_he":28.9093023256,"carbon_eff":2.17046325178,"density":0.179880185812,"hdb_street":"SIMEI ST 1","ORIG_FID":16}},
{"type":"Feature","id":17,"geometry":{"type":"Point","coordinates":[103.95419860665089,1.3440264092476064]},"properties":{"FID":17,"average_he":32.1,"carbon_eff":1.8616965938,"density":0.345712086622,"hdb_street":"SIMEI ST 5","ORIG_FID":17}},
{"type":"Feature","id":18,"geometry":{"type":"Point","coordinates":[103.95548371116146,1.345198478131978]},"properties":{"FID":18,"average_he":25.5666666667,"carbon_eff":2.04629000501,"density":0.371195219469,"hdb_street":"SIMEI ST 2","ORIG_FID":18}},
{"type":"Feature","id":19,"geometry":{"type":"Point","coordinates":[103.95915034396579,1.3451760327494469]},"properties":{"FID":19,"average_he":26.7545454545,"carbon_eff":2.13745031371,"density":0.338411168427,"hdb_street":"SIMEI RD","ORIG_FID":19}},
{"type":"Feature","id":20,"geometry":{"type":"Point","coordinates":[103.9567068149648,1.3429119569651675]},"properties":{"FID":20,"average_he":29.4866666667,"carbon_eff":2.08094119586,"density":0.287463497656,"hdb_street":"SIMEI ST 4","ORIG_FID":20}},
{"type":"Feature","id":21,"geometry":{"type":"Point","coordinates":[103.9527162748718,1.3490486125551973]},"properties":{"FID":21,"average_he":30.337037037,"carbon_eff":2.28864855143,"density":0.234975496841,"hdb_street":"TAMPINES ST 22","ORIG_FID":21}},
{"type":"Feature","id":22,"geometry":{"type":"Point","coordinates":[103.94734708454116,1.346448633395415]},"properties":{"FID":22,"average_he":29.9666666667,"carbon_eff":2.01060246291,"density":0.191334187717,"hdb_street":"TAMPINES ST 11","ORIG_FID":22}},
{"type":"Feature","id":23,"geometry":{"type":"Point","coordinates":[103.90152124949188,1.317725835847339]},"properties":{"FID":23,"average_he":33.5,"carbon_eff":0.970014553943,"density":0.444512300814,"hdb_street":"SIMS AVE","ORIG_FID":23}},
{"type":"Feature","id":24,"geometry":{"type":"Point","coordinates":[103.7660090306269,1.3196903282311157]},"properties":{"FID":24,"average_he":35.5363636364,"carbon_eff":2.11821656319,"density":0.182465091214,"hdb_street":"CLEMENTI AVE 4","ORIG_FID":24}},
{"type":"Feature","id":25,"geometry":{"type":"Point","coordinates":[103.7693620613771,1.3144370856119094]},"properties":{"FID":25,"average_he":41.5769230769,"carbon_eff":1.90943207952,"density":0.166329215677,"hdb_street":"CLEMENTI AVE 2","ORIG_FID":25}},
{"type":"Feature","id":26,"geometry":{"type":"Point","coordinates":[103.76844606270083,1.3168394106748504]},"properties":{"FID":26,"average_he":32.1,"carbon_eff":1.78957705014,"density":0.121797481612,"hdb_street":"CLEMENTI AVE 5","ORIG_FID":26}},
{"type":"Feature","id":27,"geometry":{"type":"Point","coordinates":[103.77078786942705,1.3765075878577293]},"properties":{"FID":27,"average_he":28.8483870968,"carbon_eff":2.04599250932,"density":0.250415370215,"hdb_street":"PENDING RD","ORIG_FID":27}},
{"type":"Feature","id":28,"geometry":{"type":"Point","coordinates":[103.95363379812845,1.3548092971553445]},"properties":{"FID":28,"average_he":31.7,"carbon_eff":2.2463865037,"density":0.303898146474,"hdb_street":"TAMPINES ST 23","ORIG_FID":28}},
{"type":"Feature","id":29,"geometry":{"type":"Point","coordinates":[103.9525872218436,1.3551179005918517]},"properties":{"FID":29,"average_he":27.4333333333,"carbon_eff":2.15734659149,"density":0.363736106875,"hdb_street":"TAMPINES ST 24","ORIG_FID":29}},
{"type":"Feature","id":30,"geometry":{"type":"Point","coordinates":[103.85212132681895,1.2987509116043505]},"properties":{"FID":30,"average_he":54.5,"carbon_eff":1.77767803804,"density":0.39705663441,"hdb_street":"WATERLOO ST","ORIG_FID":30}},
{"type":"Feature","id":31,"geometry":{"type":"Point","coordinates":[103.94476115662451,1.3498474793429969]},"properties":{"FID":31,"average_he":31.96,"carbon_eff":2.26311702252,"density":0.174520883731,"hdb_street":"TAMPINES ST 12","ORIG_FID":31}},
{"type":"Feature","id":32,"geometry":{"type":"Point","coordinates":[103.94017328563929,1.351194034708799]},"properties":{"FID":32,"average_he":28.6,"carbon_eff":1.71419138279,"density":0.0900436788445,"hdb_street":"TAMPINES AVE 5","ORIG_FID":32}},
{"type":"Feature","id":33,"geometry":{"type":"Point","coordinates":[103.95820692794987,1.35337534799642]},"properties":{"FID":33,"average_he":32.5421052632,"carbon_eff":1.72822334408,"density":0.25984743073,"hdb_street":"TAMPINES ST 32","ORIG_FID":33}},
{"type":"Feature","id":34,"geometry":{"type":"Point","coordinates":[103.95892358639402,1.35863976198108]},"properties":{"FID":34,"average_he":29.1634146341,"carbon_eff":2.7707607745,"density":0.174808316971,"hdb_street":"TAMPINES ST 34","ORIG_FID":34}},
{"type":"Feature","id":35,"geometry":{"type":"Point","coordinates":[103.95690355268395,1.3555559820026108]},"properties":{"FID":35,"average_he":34.9,"carbon_eff":1.80891361326,"density":0.354331161478,"hdb_street":"TAMPINES AVE 7","ORIG_FID":35}},
{"type":"Feature","id":36,"geometry":{"type":"Point","coordinates":[103.95413466468564,1.360236130084598]},"properties":{"FID":36,"average_he":22.125,"carbon_eff":1.84358388317,"density":0.31785344437,"hdb_street":"TAMPINES ST 44","ORIG_FID":36}},
{"type":"Feature","id":37,"geometry":{"type":"Point","coordinates":[103.9529087050793,1.357537163584566]},"properties":{"FID":37,"average_he":30.175,"carbon_eff":2.19544362705,"density":0.205712505112,"hdb_street":"TAMPINES ST 42","ORIG_FID":37}},
{"type":"Feature","id":38,"geometry":{"type":"Point","coordinates":[103.95209454524829,1.360241388598973]},"properties":{"FID":38,"average_he":22.125,"carbon_eff":1.85059021121,"density":0.312717186313,"hdb_street":"TAMPINES ST 43","ORIG_FID":38}},
{"type":"Feature","id":39,"geometry":{"type":"Point","coordinates":[103.94867488998744,1.3583290387473501]},"properties":{"FID":39,"average_he":31.5105263158,"carbon_eff":2.11109064775,"density":0.18939038164,"hdb_street":"TAMPINES ST 41","ORIG_FID":39}},
{"type":"Feature","id":40,"geometry":{"type":"Point","coordinates":[103.94526446070991,1.3556059682252304]},"properties":{"FID":40,"average_he":17.1666666667,"carbon_eff":1.89482748385,"density":0.385158946664,"hdb_street":"TAMPINES CTRL 1","ORIG_FID":40}},
{"type":"Feature","id":41,"geometry":{"type":"Point","coordinates":[103.69774325424514,1.344969566933896]},"properties":{"FID":41,"average_he":31.82,"carbon_eff":1.97670644149,"density":0.289968321407,"hdb_street":"JURONG WEST AVE 5","ORIG_FID":41}},
{"type":"Feature","id":42,"geometry":{"type":"Point","coordinates":[103.6978135826864,1.346670860208488]},"properties":{"FID":42,"average_he":37.1909090909,"carbon_eff":1.89754189499,"density":0.114507262941,"hdb_street":"JURONG WEST ST 73","ORIG_FID":42}},
{"type":"Feature","id":43,"geometry":{"type":"Point","coordinates":[103.689675718168,1.3406817951057604]},"properties":{"FID":43,"average_he":30.5923076923,"carbon_eff":1.84740846559,"density":0.181475050342,"hdb_street":"JURONG WEST ST 92","ORIG_FID":43}},
{"type":"Feature","id":44,"geometry":{"type":"Point","coordinates":[103.71286405826238,1.3477779796707925]},"properties":{"FID":44,"average_he":47.7,"carbon_eff":1.29773990862,"density":0.215474620676,"hdb_street":"BOON LAY PL","ORIG_FID":44}},
{"type":"Feature","id":45,"geometry":{"type":"Point","coordinates":[103.7109084845442,1.3459973084022225]},"properties":{"FID":45,"average_he":62.9,"carbon_eff":4.33360909249,"density":0.209826983432,"hdb_street":"BOON LAY AVE","ORIG_FID":45}},
{"type":"Feature","id":46,"geometry":{"type":"Point","coordinates":[103.69346714625104,1.340355399030181]},"properties":{"FID":46,"average_he":31.4,"carbon_eff":2.59191836467,"density":0.236774723909,"hdb_street":"JURONG WEST ST 93","ORIG_FID":46}},
{"type":"Feature","id":47,"geometry":{"type":"Point","coordinates":[103.69693954255169,1.343214903968573]},"properties":{"FID":47,"average_he":38.9444444444,"carbon_eff":1.61624346058,"density":0.161256389663,"hdb_street":"JURONG WEST ST 71","ORIG_FID":47}},
{"type":"Feature","id":48,"geometry":{"type":"Point","coordinates":[103.85310482023934,1.337579753618299]},"properties":{"FID":48,"average_he":32.1,"carbon_eff":2.08516731246,"density":0.149834669023,"hdb_street":"LOR 6 TOA PAYOH","ORIG_FID":48}},
{"type":"Feature","id":49,"geometry":{"type":"Point","coordinates":[103.73015300010847,1.3472291770894496]},"properties":{"FID":49,"average_he":28.1470588235,"carbon_eff":1.20938012563,"density":0.18316018186,"hdb_street":"JURONG EAST ST 31","ORIG_FID":49}},
{"type":"Feature","id":50,"geometry":{"type":"Point","coordinates":[103.88095276278,1.3357377860416122]},"properties":{"FID":50,"average_he":44.8076923077,"carbon_eff":2.00809658972,"density":0.139365199135,"hdb_street":"JOO SENG RD","ORIG_FID":50}},
{"type":"Feature","id":51,"geometry":{"type":"Point","coordinates":[103.69839973228005,1.3388767317217227]},"properties":{"FID":51,"average_he":44.756,"carbon_eff":1.30975832587,"density":0.0604670874568,"hdb_street":"JURONG WEST ST 65","ORIG_FID":51}},
{"type":"Feature","id":52,"geometry":{"type":"Point","coordinates":[103.70560981246412,1.3428078376246915]},"properties":{"FID":52,"average_he":34.9,"carbon_eff":2.88684987155,"density":0.145217757275,"hdb_street":"JURONG WEST CTRL 1","ORIG_FID":52}},
{"type":"Feature","id":53,"geometry":{"type":"Point","coordinates":[103.69835876565521,1.3456425754750816]},"properties":{"FID":53,"average_he":37.7,"carbon_eff":1.86911523619,"density":0.333721026204,"hdb_street":"JURONG WEST ST 72","ORIG_FID":53}},
{"type":"Feature","id":54,"geometry":{"type":"Point","coordinates":[103.69961894910865,1.349345848903167]},"properties":{"FID":54,"average_he":42.6,"carbon_eff":1.67492483447,"density":0.208301447766,"hdb_street":"JURONG WEST ST 74","ORIG_FID":54}},
{"type":"Feature","id":55,"geometry":{"type":"Point","coordinates":[103.79131488441502,1.4426883987720394]},"properties":{"FID":55,"average_he":31.092,"carbon_eff":1.83460841905,"density":0.204199580349,"hdb_street":"WOODLANDS ST 82","ORIG_FID":55}},
{"type":"Feature","id":56,"geometry":{"type":"Point","coordinates":[103.70119653065203,1.3462133609037847]},"properties":{"FID":56,"average_he":43.3,"carbon_eff":1.61239720635,"density":0.376280012387,"hdb_street":"JURONG WEST ST 75","ORIG_FID":56}},
{"type":"Feature","id":57,"geometry":{"type":"Point","coordinates":[103.70006602961443,1.3390611854248713]},"properties":{"FID":57,"average_he":43.3,"carbon_eff":1.43187300916,"density":0.287620459401,"hdb_street":"JURONG WEST ST 62","ORIG_FID":57}},
{"type":"Feature","id":58,"geometry":{"type":"Point","coordinates":[103.71906134995538,1.3498409362172272]},"properties":{"FID":58,"average_he":12.5,"carbon_eff":0.750234327807,"density":0.619064930032,"hdb_street":"JURONG WEST ST 51","ORIG_FID":58}},
{"type":"Feature","id":59,"geometry":{"type":"Point","coordinates":[103.93768220992493,1.3482002916941969]},"properties":{"FID":59,"average_he":33.556,"carbon_eff":1.74743673868,"density":0.137949632062,"hdb_street":"TAMPINES AVE 4","ORIG_FID":59}},
{"type":"Feature","id":60,"geometry":{"type":"Point","coordinates":[103.93974082131162,1.3473529836782918]},"properties":{"FID":60,"average_he":30.7,"carbon_eff":1.7289808939,"density":0.215327205714,"hdb_street":"TAMPINES ST 91","ORIG_FID":60}},
{"type":"Feature","id":61,"geometry":{"type":"Point","coordinates":[103.85188936564197,1.3720430145309004]},"properties":{"FID":61,"average_he":82.5,"carbon_eff":1.90047909687,"density":0.274771873661,"hdb_street":"ANG MO KIO ST 52","ORIG_FID":61}},
{"type":"Feature","id":62,"geometry":{"type":"Point","coordinates":[103.85017667108566,1.363985892334142]},"properties":{"FID":62,"average_he":85.3,"carbon_eff":1.41390272815,"density":0.38301918933,"hdb_street":"ANG MO KIO ST 32","ORIG_FID":62}},
{"type":"Feature","id":63,"geometry":{"type":"Point","coordinates":[103.8497500317446,1.3356728909030944]},"properties":{"FID":63,"average_he":41.9,"carbon_eff":1.69983939786,"density":0.0758668755885,"hdb_street":"LOR 4 TOA PAYOH","ORIG_FID":63}},
{"type":"Feature","id":64,"geometry":{"type":"Point","coordinates":[103.8521527152675,1.3464266824388664]},"properties":{"FID":64,"average_he":26.5,"carbon_eff":1.68437024574,"density":0.101908991281,"hdb_street":"BISHAN ST 11","ORIG_FID":64}},
{"type":"Feature","id":65,"geometry":{"type":"Point","coordinates":[103.85073070605736,1.345863644736892]},"properties":{"FID":65,"average_he":32.4733333333,"carbon_eff":2.0178918072,"density":0.219479630966,"hdb_street":"BISHAN ST 12","ORIG_FID":65}},
{"type":"Feature","id":66,"geometry":{"type":"Point","coordinates":[103.73680739006383,1.3379748393830149]},"properties":{"FID":66,"average_he":44.875,"carbon_eff":1.57446572084,"density":0.17852241025,"hdb_street":"JURONG EAST ST 13","ORIG_FID":66}},
{"type":"Feature","id":67,"geometry":{"type":"Point","coordinates":[103.90277627421119,1.3226207398576326]},"properties":{"FID":67,"average_he":43.636,"carbon_eff":1.72406229149,"density":0.160564213311,"hdb_street":"EUNOS CRES","ORIG_FID":67}},
{"type":"Feature","id":68,"geometry":{"type":"Point","coordinates":[103.88679672304995,1.3262447401698934]},"properties":{"FID":68,"average_he":32.87,"carbon_eff":2.25592446709,"density":0.180646327512,"hdb_street":"CIRCUIT RD","ORIG_FID":68}},
{"type":"Feature","id":69,"geometry":{"type":"Point","coordinates":[103.84829331335841,1.3385236319482103]},"properties":{"FID":69,"average_he":47.5,"carbon_eff":2.56416894078,"density":0.386513215919,"hdb_street":"LOR 3 TOA PAYOH","ORIG_FID":69}},
{"type":"Feature","id":70,"geometry":{"type":"Point","coordinates":[103.84739616807371,1.3397236975030047]},"properties":{"FID":70,"average_he":39.7,"carbon_eff":2.3652802733,"density":0.0511005104161,"hdb_street":"TOA PAYOH NTH","ORIG_FID":70}},
{"type":"Feature","id":71,"geometry":{"type":"Point","coordinates":[103.84310806106976,1.3575795410894518]},"properties":{"FID":71,"average_he":41.9,"carbon_eff":1.67418173473,"density":0.186317182418,"hdb_street":"BISHAN ST 24","ORIG_FID":71}},
{"type":"Feature","id":72,"geometry":{"type":"Point","coordinates":[103.8443483515198,1.360020061896684]},"properties":{"FID":72,"average_he":41.375,"carbon_eff":1.48712313391,"density":0.250727059242,"hdb_street":"BISHAN ST 22","ORIG_FID":72}},
{"type":"Feature","id":73,"geometry":{"type":"Point","coordinates":[103.8459862063581,1.3572753056674587]},"properties":{"FID":73,"average_he":37.7,"carbon_eff":1.42995518409,"density":0.118702660765,"hdb_street":"BISHAN ST 23","ORIG_FID":73}},
{"type":"Feature","id":74,"geometry":{"type":"Point","coordinates":[103.88547572874873,1.3747450927903504]},"properties":{"FID":74,"average_he":29.6111111111,"carbon_eff":1.9643582659,"density":0.0640227045907,"hdb_street":"HOUGANG AVE 4","ORIG_FID":74}},
{"type":"Feature","id":75,"geometry":{"type":"Point","coordinates":[103.89201564690697,1.3746753065653474]},"properties":{"FID":75,"average_he":30,"carbon_eff":1.92604340066,"density":0.22697965221,"hdb_street":"HOUGANG AVE 6","ORIG_FID":75}},
{"type":"Feature","id":76,"geometry":{"type":"Point","coordinates":[103.8719876594433,1.3685685583284863]},"properties":{"FID":76,"average_he":28.7235294118,"carbon_eff":2.08991649422,"density":0.246254717437,"hdb_street":"SERANGOON NTH AVE 1","ORIG_FID":76}},
{"type":"Feature","id":77,"geometry":{"type":"Point","coordinates":[103.8709301401189,1.3732771117615432]},"properties":{"FID":77,"average_he":41.2636363636,"carbon_eff":1.71765757089,"density":0.241082325681,"hdb_street":"SERANGOON NTH AVE 3","ORIG_FID":77}},
{"type":"Feature","id":78,"geometry":{"type":"Point","coordinates":[103.87494172885852,1.3681154457682587]},"properties":{"FID":78,"average_he":34.1,"carbon_eff":1.92105009356,"density":0.355239796635,"hdb_street":"SERANGOON NTH AVE 2","ORIG_FID":78}},
{"type":"Feature","id":79,"geometry":{"type":"Point","coordinates":[103.86938741642302,1.3520282094047797]},"properties":{"FID":79,"average_he":33.6166666667,"carbon_eff":1.98435603468,"density":0.17195950908,"hdb_street":"SERANGOON AVE 3","ORIG_FID":79}},
{"type":"Feature","id":80,"geometry":{"type":"Point","coordinates":[103.8675528512737,1.3531393267605833]},"properties":{"FID":80,"average_he":30.4407407407,"carbon_eff":1.87416991152,"density":0.224061849532,"hdb_street":"SERANGOON AVE 2","ORIG_FID":80}},
{"type":"Feature","id":81,"geometry":{"type":"Point","coordinates":[103.89202298641014,1.3626277549688715]},"properties":{"FID":81,"average_he":34.047826087,"carbon_eff":2.27762910184,"density":0.149759533162,"hdb_street":"HOUGANG AVE 3","ORIG_FID":81}},
{"type":"Feature","id":82,"geometry":{"type":"Point","coordinates":[103.89608600360947,1.3673969956567313]},"properties":{"FID":82,"average_he":31.4875,"carbon_eff":2.11004034847,"density":0.174157304909,"hdb_street":"HOUGANG AVE 5","ORIG_FID":82}},
{"type":"Feature","id":83,"geometry":{"type":"Point","coordinates":[103.89808338673102,1.368929455729596]},"properties":{"FID":83,"average_he":28.5222222222,"carbon_eff":1.92316844137,"density":0.129539684549,"hdb_street":"HOUGANG AVE 7","ORIG_FID":83}},
{"type":"Feature","id":84,"geometry":{"type":"Point","coordinates":[103.88532646625781,1.3513787677740154]},"properties":{"FID":84,"average_he":35.2111111111,"carbon_eff":1.7736426694,"density":0.183949108651,"hdb_street":"LOR AH SOO","ORIG_FID":84}},
{"type":"Feature","id":85,"geometry":{"type":"Point","coordinates":[103.89130610545976,1.3573672325048778]},"properties":{"FID":85,"average_he":31.75,"carbon_eff":2.11444533659,"density":0.211000796826,"hdb_street":"HOUGANG ST 22","ORIG_FID":85}},
{"type":"Feature","id":86,"geometry":{"type":"Point","coordinates":[103.88868953550434,1.3660370320715503]},"properties":{"FID":86,"average_he":33.5,"carbon_eff":2.21814089984,"density":0.31868799982,"hdb_street":"HOUGANG AVE 2","ORIG_FID":86}},
{"type":"Feature","id":87,"geometry":{"type":"Point","coordinates":[103.72125664823056,1.3377115924116612]},"properties":{"FID":87,"average_he":29.7666666667,"carbon_eff":1.7928649017,"density":0.0848879256305,"hdb_street":"CORPORATION DR","ORIG_FID":87}},
{"type":"Feature","id":88,"geometry":{"type":"Point","coordinates":[103.72382267585039,1.334525285156163]},"properties":{"FID":88,"average_he":29.7666666667,"carbon_eff":1.97554036273,"density":0.169880169162,"hdb_street":"HO CHING RD","ORIG_FID":88}},
{"type":"Feature","id":89,"geometry":{"type":"Point","coordinates":[103.72430925293901,1.3332052223422022]},"properties":{"FID":89,"average_he":29.3,"carbon_eff":1.93262755163,"density":0.859817141929,"hdb_street":"TAO CHING RD","ORIG_FID":89}},
{"type":"Feature","id":90,"geometry":{"type":"Point","coordinates":[103.72271884471209,1.3322491092422515]},"properties":{"FID":90,"average_he":60.1,"carbon_eff":2.0279509701,"density":0.421271293693,"hdb_street":"YUNG KUANG RD","ORIG_FID":90}},
{"type":"Feature","id":91,"geometry":{"type":"Point","coordinates":[103.72090394602984,1.339573690107259]},"properties":{"FID":91,"average_he":35.6,"carbon_eff":1.51306492445,"density":0.271012956283,"hdb_street":"KANG CHING RD","ORIG_FID":91}},
{"type":"Feature","id":92,"geometry":{"type":"Point","coordinates":[103.72387424531915,1.3359976518799803]},"properties":{"FID":92,"average_he":29.3,"carbon_eff":2.41344239981,"density":0.773872004705,"hdb_street":"YUAN CHING RD","ORIG_FID":92}},
{"type":"Feature","id":93,"geometry":{"type":"Point","coordinates":[103.88147580764634,1.3771728713867553]},"properties":{"FID":93,"average_he":43.9,"carbon_eff":2.02664297379,"density":0.149029617887,"hdb_street":"HOUGANG ST 91","ORIG_FID":93}},
{"type":"Feature","id":94,"geometry":{"type":"Point","coordinates":[103.8800908003216,1.3764737742935191]},"properties":{"FID":94,"average_he":45.2157894737,"carbon_eff":1.84032973937,"density":0.117174651063,"hdb_street":"HOUGANG AVE 9","ORIG_FID":94}},
{"type":"Feature","id":95,"geometry":{"type":"Point","coordinates":[103.88926262362428,1.3791750102720568]},"properties":{"FID":95,"average_he":39.3592592593,"carbon_eff":1.72159337045,"density":0.177415410178,"hdb_street":"HOUGANG ST 51","ORIG_FID":95}},
{"type":"Feature","id":96,"geometry":{"type":"Point","coordinates":[103.8869501199932,1.3760198810186048]},"properties":{"FID":96,"average_he":28.2111111111,"carbon_eff":2.07779784847,"density":0.277929339523,"hdb_street":"HOUGANG ST 61","ORIG_FID":96}},
{"type":"Feature","id":97,"geometry":{"type":"Point","coordinates":[103.88000194472902,1.3740142861877183]},"properties":{"FID":97,"average_he":38.82,"carbon_eff":1.7918680744,"density":0.347029384296,"hdb_street":"HOUGANG ST 92","ORIG_FID":97}},
{"type":"Feature","id":98,"geometry":{"type":"Point","coordinates":[103.8900935312967,1.3772495705891938]},"properties":{"FID":98,"average_he":35.8333333333,"carbon_eff":1.66512038549,"density":0.343074893115,"hdb_street":"HOUGANG ST 52","ORIG_FID":98}},
{"type":"Feature","id":99,"geometry":{"type":"Point","coordinates":[103.88987554392236,1.3633391679938365]},"properties":{"FID":99,"average_he":46.1,"carbon_eff":1.79089673743,"density":0.421519655723,"hdb_street":"HOUGANG ST 31","ORIG_FID":99}},
{"type":"Feature","id":100,"geometry":{"type":"Point","coordinates":[103.88621426574923,1.3577098256981963]},"properties":{"FID":100,"average_he":23.9545454545,"carbon_eff":1.26594066974,"density":0.111903857079,"hdb_street":"HOUGANG ST 21","ORIG_FID":100}},
{"type":"Feature","id":101,"geometry":{"type":"Point","coordinates":[103.74028201513303,1.343059170089321]},"properties":{"FID":101,"average_he":29.1666666667,"carbon_eff":1.65760328965,"density":0.211590335207,"hdb_street":"JURONG EAST ST 24","ORIG_FID":101}},
{"type":"Feature","id":102,"geometry":{"type":"Point","coordinates":[103.74615231534612,1.340928386083572]},"properties":{"FID":102,"average_he":49.0272727273,"carbon_eff":1.48746390036,"density":0.252263248064,"hdb_street":"TOH GUAN RD","ORIG_FID":102}},
{"type":"Feature","id":103,"geometry":{"type":"Point","coordinates":[103.9086042320958,1.3341193398846682]},"properties":{"FID":103,"average_he":37.7,"carbon_eff":1.45853344036,"density":0.233797917125,"hdb_street":"JLN DAMAI","ORIG_FID":103}},
{"type":"Feature","id":104,"geometry":{"type":"Point","coordinates":[103.81783367386845,1.2858743739705516]},"properties":{"FID":104,"average_he":49.1545454545,"carbon_eff":1.72003714748,"density":0.118711686773,"hdb_street":"REDHILL CL","ORIG_FID":104}},
{"type":"Feature","id":105,"geometry":{"type":"Point","coordinates":[103.88475111040763,1.3087191222180123]},"properties":{"FID":105,"average_he":54.5,"carbon_eff":1.43542234943,"density":0.667684612753,"hdb_street":"JLN TIGA","ORIG_FID":105}},
{"type":"Feature","id":106,"geometry":{"type":"Point","coordinates":[103.87703174354861,1.3167696133665443]},"properties":{"FID":106,"average_he":37.2333333333,"carbon_eff":1.74902455334,"density":0.232715974202,"hdb_street":"SIMS DR","ORIG_FID":106}},
{"type":"Feature","id":107,"geometry":{"type":"Point","coordinates":[103.72189071072535,1.3323875812793537]},"properties":{"FID":107,"average_he":51.7,"carbon_eff":1.73372768706,"density":0.167696210583,"hdb_street":"YUNG SHENG RD","ORIG_FID":107}},
{"type":"Feature","id":108,"geometry":{"type":"Point","coordinates":[103.72116237670491,1.3272950841138385]},"properties":{"FID":108,"average_he":40.5,"carbon_eff":1.44030507956,"density":0.339795986039,"hdb_street":"YUNG HO RD","ORIG_FID":108}},
{"type":"Feature","id":109,"geometry":{"type":"Point","coordinates":[103.7220018347109,1.3289612358233052]},"properties":{"FID":109,"average_he":53.94,"carbon_eff":1.47103120904,"density":0.227515161002,"hdb_street":"YUNG PING RD","ORIG_FID":109}},
{"type":"Feature","id":110,"geometry":{"type":"Point","coordinates":[103.71488592393602,1.337489168897684]},"properties":{"FID":110,"average_he":47.5,"carbon_eff":1.49041819047,"density":0.0163901122222,"hdb_street":"YUNG LOH RD","ORIG_FID":110}},
{"type":"Feature","id":111,"geometry":{"type":"Point","coordinates":[103.80552255426933,1.441710331487658]},"properties":{"FID":111,"average_he":40.22,"carbon_eff":2.40382707606,"density":0.354484798693,"hdb_street":"WOODLANDS DR 73","ORIG_FID":111}},
{"type":"Feature","id":112,"geometry":{"type":"Point","coordinates":[103.76762555953447,1.3799596463697732]},"properties":{"FID":112,"average_he":45.2384615385,"carbon_eff":2.00915328488,"density":0.0783313659649,"hdb_street":"GANGSA RD","ORIG_FID":112}},
{"type":"Feature","id":113,"geometry":{"type":"Point","coordinates":[103.93327834790288,1.3220283143740394]},"properties":{"FID":113,"average_he":40.5,"carbon_eff":1.93218548215,"density":0.227992827008,"hdb_street":"BEDOK STH AVE 1","ORIG_FID":113}},
{"type":"Feature","id":114,"geometry":{"type":"Point","coordinates":[103.93681834422235,1.3220821931745987]},"properties":{"FID":114,"average_he":49.3307692308,"carbon_eff":1.85708075152,"density":0.131572966921,"hdb_street":"BEDOK STH AVE 2","ORIG_FID":114}},
{"type":"Feature","id":115,"geometry":{"type":"Point","coordinates":[103.93756445949526,1.324280106745625]},"properties":{"FID":115,"average_he":40.9666666667,"carbon_eff":1.57877435002,"density":0.0852309564783,"hdb_street":"NEW UPP CHANGI RD","ORIG_FID":115}},
{"type":"Feature","id":116,"geometry":{"type":"Point","coordinates":[103.93419446453419,1.3300155609626163]},"properties":{"FID":116,"average_he":47.325,"carbon_eff":1.73355530897,"density":0.121217327306,"hdb_street":"BEDOK NTH AVE 3","ORIG_FID":116}},
{"type":"Feature","id":117,"geometry":{"type":"Point","coordinates":[103.93704403268666,1.3292005852080118]},"properties":{"FID":117,"average_he":39.7533333333,"carbon_eff":1.90178079863,"density":0.163906647128,"hdb_street":"BEDOK NTH ST 2","ORIG_FID":117}},
{"type":"Feature","id":118,"geometry":{"type":"Point","coordinates":[103.93064395830044,1.3301940697471557]},"properties":{"FID":118,"average_he":41.2777777778,"carbon_eff":1.81248610536,"density":0.13365822455,"hdb_street":"BEDOK NTH AVE 2","ORIG_FID":118}},
{"type":"Feature","id":119,"geometry":{"type":"Point","coordinates":[103.92747810972246,1.3304593710799566]},"properties":{"FID":119,"average_he":33.0333333333,"carbon_eff":2.00023271686,"density":0.194571410705,"hdb_street":"BEDOK NTH AVE 1","ORIG_FID":119}},
{"type":"Feature","id":120,"geometry":{"type":"Point","coordinates":[103.8405371320267,1.3558008465927054]},"properties":{"FID":120,"average_he":34.9,"carbon_eff":2.56558061685,"density":0.999975129514,"hdb_street":"SECTOR A SIN MING IND EST","ORIG_FID":120}},
{"type":"Feature","id":121,"geometry":{"type":"Point","coordinates":[103.83265264838184,1.360717437666948]},"properties":{"FID":121,"average_he":43.0846153846,"carbon_eff":1.52764798145,"density":0.133520461984,"hdb_street":"SIN MING AVE","ORIG_FID":121}},
{"type":"Feature","id":122,"geometry":{"type":"Point","coordinates":[103.83179437535244,1.3579831754450993]},"properties":{"FID":122,"average_he":34.9,"carbon_eff":0.832119558554,"density":0.317936021433,"hdb_street":"BRIGHT HILL DR","ORIG_FID":122}},
{"type":"Feature","id":123,"geometry":{"type":"Point","coordinates":[103.83809559953207,1.3560659174509893]},"properties":{"FID":123,"average_he":34.9,"carbon_eff":1.99185229024,"density":0.120880252824,"hdb_street":"SIN MING RD","ORIG_FID":123}},
{"type":"Feature","id":124,"geometry":{"type":"Point","coordinates":[103.87632617795482,1.3499700429808357]},"properties":{"FID":124,"average_he":38.4,"carbon_eff":2.02677500231,"density":0.303892059233,"hdb_street":"LOR LEW LIAN","ORIG_FID":124}},
{"type":"Feature","id":125,"geometry":{"type":"Point","coordinates":[103.8717494081152,1.3543538068792442]},"properties":{"FID":125,"average_he":26.9,"carbon_eff":1.70288384155,"density":0.28018968906,"hdb_street":"SERANGOON CTRL DR","ORIG_FID":125}},
{"type":"Feature","id":126,"geometry":{"type":"Point","coordinates":[103.84042667599813,1.367279058451735]},"properties":{"FID":126,"average_he":34.9,"carbon_eff":4.05136291514,"density":0.0493465109486,"hdb_street":"ANG MO KIO ST 21","ORIG_FID":126}},
{"type":"Feature","id":127,"geometry":{"type":"Point","coordinates":[103.84700382060463,1.3654836203489835]},"properties":{"FID":127,"average_he":57.3,"carbon_eff":1.22005482083,"density":0.579056474791,"hdb_street":"ANG MO KIO ST 31","ORIG_FID":127}},
{"type":"Feature","id":128,"geometry":{"type":"Point","coordinates":[103.90091686870619,1.3830821131169448]},"properties":{"FID":128,"average_he":48.9,"carbon_eff":1.72651356309,"density":0.197869322327,"hdb_street":"RIVERVALE WALK","ORIG_FID":128}},
{"type":"Feature","id":129,"geometry":{"type":"Point","coordinates":[103.90137671438016,1.3876072395796852]},"properties":{"FID":129,"average_he":48.1222222222,"carbon_eff":1.52634656094,"density":0.051485632576,"hdb_street":"RIVERVALE ST","ORIG_FID":129}},
{"type":"Feature","id":130,"geometry":{"type":"Point","coordinates":[103.90456796489855,1.3878740338158109]},"properties":{"FID":130,"average_he":48.9,"carbon_eff":1.79116870897,"density":0.0938277604697,"hdb_street":"SENGKANG EAST WAY","ORIG_FID":130}},
{"type":"Feature","id":131,"geometry":{"type":"Point","coordinates":[103.90671547580958,1.3908943608375897]},"properties":{"FID":131,"average_he":49.8837837838,"carbon_eff":1.88435881364,"density":0.108109173182,"hdb_street":"RIVERVALE CRES","ORIG_FID":131}},
{"type":"Feature","id":132,"geometry":{"type":"Point","coordinates":[103.8983378680496,1.38555660007461]},"properties":{"FID":132,"average_he":45.54,"carbon_eff":1.485652313,"density":0.181741139955,"hdb_street":"COMPASSVALE LANE","ORIG_FID":132}},
{"type":"Feature","id":133,"geometry":{"type":"Point","coordinates":[103.8206412080124,1.4492881959499508]},"properties":{"FID":133,"average_he":42.1625,"carbon_eff":1.99809206513,"density":0.236013822035,"hdb_street":"CANBERRA RD","ORIG_FID":133}},
{"type":"Feature","id":134,"geometry":{"type":"Point","coordinates":[103.7602435881028,1.3075624100651047]},"properties":{"FID":134,"average_he":36.86,"carbon_eff":2.0130456693,"density":0.227480371651,"hdb_street":"WEST COAST RD","ORIG_FID":134}},
{"type":"Feature","id":135,"geometry":{"type":"Point","coordinates":[103.76443343177246,1.3132269145140365]},"properties":{"FID":135,"average_he":46.2333333333,"carbon_eff":1.65346906008,"density":0.185119009189,"hdb_street":"CLEMENTI AVE 3","ORIG_FID":135}},
{"type":"Feature","id":136,"geometry":{"type":"Point","coordinates":[103.88420013634538,1.3098790064902857]},"properties":{"FID":136,"average_he":45.75,"carbon_eff":2.34497152765,"density":0.30297373922,"hdb_street":"CASSIA CRES","ORIG_FID":136}},
{"type":"Feature","id":137,"geometry":{"type":"Point","coordinates":[103.88308095248838,1.3085326036848226]},"properties":{"FID":137,"average_he":44.5,"carbon_eff":1.87284544817,"density":0.167179274251,"hdb_street":"PINE CL","ORIG_FID":137}},
{"type":"Feature","id":138,"geometry":{"type":"Point","coordinates":[103.79300253991003,1.4406944897925862]},"properties":{"FID":138,"average_he":31.5166666667,"carbon_eff":1.82287907425,"density":0.19599776109,"hdb_street":"WOODLANDS ST 83","ORIG_FID":138}},
{"type":"Feature","id":139,"geometry":{"type":"Point","coordinates":[103.78850697511136,1.441352961748605]},"properties":{"FID":139,"average_he":31.1666666667,"carbon_eff":1.8089348194,"density":0.140868016888,"hdb_street":"WOODLANDS ST 81","ORIG_FID":139}},
{"type":"Feature","id":140,"geometry":{"type":"Point","coordinates":[103.7913132988506,1.445068443738964]},"properties":{"FID":140,"average_he":34.9,"carbon_eff":1.71233977862,"density":0.438223662196,"hdb_street":"WOODLANDS AVE 9","ORIG_FID":140}},
{"type":"Feature","id":141,"geometry":{"type":"Point","coordinates":[103.84919573689784,1.3331853650171597]},"properties":{"FID":141,"average_he":20.9,"carbon_eff":1.03555056033,"density":0.269602943455,"hdb_street":"TOA PAYOH CTRL","ORIG_FID":141}},
{"type":"Feature","id":142,"geometry":{"type":"Point","coordinates":[103.84677247045309,1.336419096560485]},"properties":{"FID":142,"average_he":50.5592592593,"carbon_eff":2.52837386678,"density":0.0774171417428,"hdb_street":"LOR 2 TOA PAYOH","ORIG_FID":142}},
{"type":"Feature","id":143,"geometry":{"type":"Point","coordinates":[103.8644295105133,1.3196256156879946]},"properties":{"FID":143,"average_he":41.8263157895,"carbon_eff":1.96888381958,"density":0.0823063465074,"hdb_street":"BENDEMEER RD","ORIG_FID":143}},
{"type":"Feature","id":144,"geometry":{"type":"Point","coordinates":[103.86331964263422,1.3200474351510214]},"properties":{"FID":144,"average_he":34.9,"carbon_eff":1.92518002465,"density":0.255687046566,"hdb_street":"WHAMPOA WEST","ORIG_FID":144}},
{"type":"Feature","id":145,"geometry":{"type":"Point","coordinates":[103.84568733535068,1.2846545290680222]},"properties":{"FID":145,"average_he":52.82,"carbon_eff":2.97335152427,"density":0.70537739082,"hdb_street":"UPP CROSS ST","ORIG_FID":145}},
{"type":"Feature","id":146,"geometry":{"type":"Point","coordinates":[103.77415243330522,1.3787567597013464]},"properties":{"FID":146,"average_he":35.3666666667,"carbon_eff":1.80918671892,"density":0.196206003836,"hdb_street":"BANGKIT RD","ORIG_FID":146}},
{"type":"Feature","id":147,"geometry":{"type":"Point","coordinates":[103.83937919847585,1.287870746639528]},"properties":{"FID":147,"average_he":43.3,"carbon_eff":1.87198003024,"density":0.249132731188,"hdb_street":"JLN KUKOH","ORIG_FID":147}},
{"type":"Feature","id":148,"geometry":{"type":"Point","coordinates":[103.77340137035733,1.3383182762499908]},"properties":{"FID":148,"average_he":32.3947368421,"carbon_eff":2.13990285744,"density":0.163470408067,"hdb_street":"TOH YI DR","ORIG_FID":148}},
{"type":"Feature","id":149,"geometry":{"type":"Point","coordinates":[103.9451875582724,1.3740737251171853]},"properties":{"FID":149,"average_he":36.6230769231,"carbon_eff":1.94563330763,"density":0.0560235046307,"hdb_street":"PASIR RIS DR 1","ORIG_FID":149}},
{"type":"Feature","id":150,"geometry":{"type":"Point","coordinates":[103.88663323987244,1.3301772075383833]},"properties":{"FID":150,"average_he":36.825,"carbon_eff":2.27730073744,"density":0.305500876952,"hdb_street":"BALAM RD","ORIG_FID":150}},
{"type":"Feature","id":151,"geometry":{"type":"Point","coordinates":[103.8859068173354,1.33186858019554]},"properties":{"FID":151,"average_he":34.9,"carbon_eff":2.06612423461,"density":0.266244949208,"hdb_street":"MACPHERSON LANE","ORIG_FID":151}},
{"type":"Feature","id":152,"geometry":{"type":"Point","coordinates":[103.85669534010967,1.3403256069625908]},"properties":{"FID":152,"average_he":55.2777777778,"carbon_eff":1.91445262657,"density":0.0738833871328,"hdb_street":"LOR 8 TOA PAYOH","ORIG_FID":152}},
{"type":"Feature","id":153,"geometry":{"type":"Point","coordinates":[103.85654268893494,1.337422979709465]},"properties":{"FID":153,"average_he":41.9,"carbon_eff":2.14592839945,"density":0.142775090465,"hdb_street":"LOR 7 TOA PAYOH","ORIG_FID":153}},
{"type":"Feature","id":154,"geometry":{"type":"Point","coordinates":[103.80931704545173,1.3203327971510566]},"properties":{"FID":154,"average_he":42.6,"carbon_eff":3.15878307933,"density":0.0602841895793,"hdb_street":"QUEEN'S RD","ORIG_FID":154}},
{"type":"Feature","id":155,"geometry":{"type":"Point","coordinates":[103.79293365182455,1.3091691155509424]},"properties":{"FID":155,"average_he":43.5153846154,"carbon_eff":1.3048698786,"density":0.150392267515,"hdb_street":"HOLLAND DR","ORIG_FID":155}},
{"type":"Feature","id":156,"geometry":{"type":"Point","coordinates":[103.88372184959036,1.3008408496609298]},"properties":{"FID":156,"average_he":34.9,"carbon_eff":2.23231925372,"density":0.99999999905,"hdb_street":"KG ARANG RD","ORIG_FID":156}},
{"type":"Feature","id":157,"geometry":{"type":"Point","coordinates":[103.88382450017649,1.3035796497842813]},"properties":{"FID":157,"average_he":29.3,"carbon_eff":2.44837807223,"density":0.999999999922,"hdb_street":"KG KAYU RD","ORIG_FID":157}},
{"type":"Feature","id":158,"geometry":{"type":"Point","coordinates":[103.80352838828068,1.4432278679374004]},"properties":{"FID":158,"average_he":37.7,"carbon_eff":1.80427253238,"density":0.29663924567,"hdb_street":"WOODLANDS DR 72","ORIG_FID":158}},
{"type":"Feature","id":159,"geometry":{"type":"Point","coordinates":[103.8008141264468,1.4459995126396865]},"properties":{"FID":159,"average_he":38.7,"carbon_eff":1.89326871292,"density":0.177878741002,"hdb_street":"WOODLANDS CRES","ORIG_FID":159}},
{"type":"Feature","id":160,"geometry":{"type":"Point","coordinates":[103.7993144897251,1.4466884266281783]},"properties":{"FID":160,"average_he":40.1,"carbon_eff":1.82028119553,"density":0.209129621581,"hdb_street":"WOODLANDS DR 60","ORIG_FID":160}},
{"type":"Feature","id":161,"geometry":{"type":"Point","coordinates":[103.79835864743359,1.441294575638458]},"properties":{"FID":161,"average_he":36.3,"carbon_eff":1.85073456385,"density":0.245318657249,"hdb_street":"WOODLANDS DR 70","ORIG_FID":161}},
{"type":"Feature","id":162,"geometry":{"type":"Point","coordinates":[103.79648336282266,1.4406765129545587]},"properties":{"FID":162,"average_he":34.9,"carbon_eff":1.98578272034,"density":0.388731521404,"hdb_street":"WOODLANDS DR 40","ORIG_FID":162}},
{"type":"Feature","id":163,"geometry":{"type":"Point","coordinates":[103.79515122198674,1.4406343439147729]},"properties":{"FID":163,"average_he":34.9,"carbon_eff":2.31609233982,"density":0.0454067050349,"hdb_street":"WOODLANDS AVE 4","ORIG_FID":163}},
{"type":"Feature","id":164,"geometry":{"type":"Point","coordinates":[103.79976358055188,1.4367916437843553]},"properties":{"FID":164,"average_he":35.1153846154,"carbon_eff":1.88207290788,"density":0.162988584521,"hdb_street":"WOODLANDS RING RD","ORIG_FID":164}},
{"type":"Feature","id":165,"geometry":{"type":"Point","coordinates":[103.79647253730649,1.4379347896346775]},"properties":{"FID":165,"average_he":32.8,"carbon_eff":1.65839715037,"density":0.426905050178,"hdb_street":"WOODLANDS DR 42","ORIG_FID":165}},
{"type":"Feature","id":166,"geometry":{"type":"Point","coordinates":[103.7994802127133,1.4389472620734887]},"properties":{"FID":166,"average_he":34.9,"carbon_eff":3.11215005646,"density":0.904096426548,"hdb_street":"WOODLANDS DR 71","ORIG_FID":166}},
{"type":"Feature","id":167,"geometry":{"type":"Point","coordinates":[103.79913002443018,1.434062846319177]},"properties":{"FID":167,"average_he":34.9,"carbon_eff":1.86528244599,"density":0.280415550106,"hdb_street":"WOODLANDS DR 52","ORIG_FID":167}},
{"type":"Feature","id":168,"geometry":{"type":"Point","coordinates":[103.79245581549131,1.4366459527266788]},"properties":{"FID":168,"average_he":36.6230769231,"carbon_eff":2.1112830834,"density":0.218901880437,"hdb_street":"WOODLANDS DR 50","ORIG_FID":168}},
{"type":"Feature","id":169,"geometry":{"type":"Point","coordinates":[103.80345582756377,1.4404592175076598]},"properties":{"FID":169,"average_he":37.4454545455,"carbon_eff":2.62238150992,"density":0.449388373162,"hdb_street":"WOODLANDS DR 62","ORIG_FID":169}},
{"type":"Feature","id":170,"geometry":{"type":"Point","coordinates":[103.80756673225216,1.4429018676542023]},"properties":{"FID":170,"average_he":44.7,"carbon_eff":2.55806654734,"density":0.31921855429,"hdb_street":"WOODLANDS DR 75","ORIG_FID":170}},
{"type":"Feature","id":171,"geometry":{"type":"Point","coordinates":[103.79595615034354,1.4296804230418156]},"properties":{"FID":171,"average_he":35.4090909091,"carbon_eff":1.46674743747,"density":0.149434135778,"hdb_street":"WOODLANDS DR 16","ORIG_FID":171}},
{"type":"Feature","id":172,"geometry":{"type":"Point","coordinates":[103.79490883803231,1.4323601202387874]},"properties":{"FID":172,"average_he":34.9,"carbon_eff":2.45132794216,"density":0.40420857048,"hdb_street":"WOODLANDS DR 44","ORIG_FID":172}},
{"type":"Feature","id":173,"geometry":{"type":"Point","coordinates":[103.79616704521344,1.4326511157071]},"properties":{"FID":173,"average_he":34.9,"carbon_eff":2.56679867032,"density":0.399346742935,"hdb_street":"WOODLANDS DR 53","ORIG_FID":173}},
{"type":"Feature","id":174,"geometry":{"type":"Point","coordinates":[103.79839999156101,1.3019255886102519]},"properties":{"FID":174,"average_he":36.6043478261,"carbon_eff":2.13823559194,"density":0.0750740973105,"hdb_street":"C'WEALTH DR","ORIG_FID":174}},
{"type":"Feature","id":175,"geometry":{"type":"Point","coordinates":[103.75606959523319,1.3474288376414543]},"properties":{"FID":175,"average_he":32.5307692308,"carbon_eff":1.37934021247,"density":0.169243239574,"hdb_street":"BT BATOK EAST AVE 3","ORIG_FID":175}},
{"type":"Feature","id":176,"geometry":{"type":"Point","coordinates":[103.7589094429528,1.3496326204420959]},"properties":{"FID":176,"average_he":27.34,"carbon_eff":1.83508849356,"density":0.209694219146,"hdb_street":"BT BATOK EAST AVE 4","ORIG_FID":176}},
{"type":"Feature","id":177,"geometry":{"type":"Point","coordinates":[103.75589982766326,1.349895273955384]},"properties":{"FID":177,"average_he":26.7545454545,"carbon_eff":1.92648951685,"density":0.255827462477,"hdb_street":"BT BATOK EAST AVE 5","ORIG_FID":177}},
{"type":"Feature","id":178,"geometry":{"type":"Point","coordinates":[103.74945338869851,1.3496625591352314]},"properties":{"FID":178,"average_he":42.2,"carbon_eff":1.60728521165,"density":0.122177881744,"hdb_street":"BT BATOK CTRL","ORIG_FID":178}},
{"type":"Feature","id":179,"geometry":{"type":"Point","coordinates":[103.74313376874163,1.3489398273100706]},"properties":{"FID":179,"average_he":28.7,"carbon_eff":1.51515168589,"density":0.203306840226,"hdb_street":"BT BATOK ST 11","ORIG_FID":179}},
{"type":"Feature","id":180,"geometry":{"type":"Point","coordinates":[103.74218095959941,1.3465233449416216]},"properties":{"FID":180,"average_he":30.7666666667,"carbon_eff":2.38708137782,"density":0.229105327408,"hdb_street":"BT BATOK WEST AVE 8","ORIG_FID":180}},
{"type":"Feature","id":181,"geometry":{"type":"Point","coordinates":[103.7472566134414,1.3446325982351657]},"properties":{"FID":181,"average_he":71.3,"carbon_eff":0.882524005596,"density":0.381950327336,"hdb_street":"BT BATOK ST 22","ORIG_FID":181}},
{"type":"Feature","id":182,"geometry":{"type":"Point","coordinates":[103.75277260112927,1.3542936836870572]},"properties":{"FID":182,"average_he":27.352173913,"carbon_eff":1.53508651011,"density":0.133591080164,"hdb_street":"BT BATOK ST 52","ORIG_FID":182}},
{"type":"Feature","id":183,"geometry":{"type":"Point","coordinates":[103.75077479212237,1.3565134806507457]},"properties":{"FID":183,"average_he":28.6,"carbon_eff":1.7157829159,"density":0.312979327463,"hdb_street":"BT BATOK ST 51","ORIG_FID":183}},
{"type":"Feature","id":184,"geometry":{"type":"Point","coordinates":[103.74957224395702,1.3592309695067921]},"properties":{"FID":184,"average_he":25.8,"carbon_eff":1.54823283662,"density":0.205027219868,"hdb_street":"BT BATOK ST 31","ORIG_FID":184}},
{"type":"Feature","id":185,"geometry":{"type":"Point","coordinates":[103.74776010651505,1.3618637073123276]},"properties":{"FID":185,"average_he":22.7,"carbon_eff":1.69482988888,"density":0.12171169858,"hdb_street":"BT BATOK ST 32","ORIG_FID":185}},
{"type":"Feature","id":186,"geometry":{"type":"Point","coordinates":[103.74739717236429,1.3623315290289886]},"properties":{"FID":186,"average_he":29.3,"carbon_eff":1.55491088315,"density":0.263237384089,"hdb_street":"BT BATOK ST 33","ORIG_FID":186}},
{"type":"Feature","id":187,"geometry":{"type":"Point","coordinates":[103.74995388067445,1.3625018836776088]},"properties":{"FID":187,"average_he":26.3352941176,"carbon_eff":1.56184160745,"density":0.333519633065,"hdb_street":"BT BATOK ST 34","ORIG_FID":187}},
{"type":"Feature","id":188,"geometry":{"type":"Point","coordinates":[103.86183216478415,1.305063895992243]},"properties":{"FID":188,"average_he":58.2333333333,"carbon_eff":1.86701593644,"density":0.234717517564,"hdb_street":"CRAWFORD LANE","ORIG_FID":188}},
{"type":"Feature","id":189,"geometry":{"type":"Point","coordinates":[103.85799103493048,1.3062117092982868]},"properties":{"FID":189,"average_he":46.1,"carbon_eff":2.4743211133,"density":0.444038762303,"hdb_street":"JLN BERSEH","ORIG_FID":189}},
{"type":"Feature","id":190,"geometry":{"type":"Point","coordinates":[103.85519953488576,1.3064541086502854]},"properties":{"FID":190,"average_he":51,"carbon_eff":1.08535367027,"density":0.367279007277,"hdb_street":"VEERASAMY RD","ORIG_FID":190}},
{"type":"Feature","id":191,"geometry":{"type":"Point","coordinates":[103.80805469563916,1.3173310188094405]},"properties":{"FID":191,"average_he":29.3,"carbon_eff":1.74251294246,"density":1.00000000046,"hdb_street":"FARRER RD","ORIG_FID":191}},
{"type":"Feature","id":192,"geometry":{"type":"Point","coordinates":[103.80270941040689,1.3096706362413193]},"properties":{"FID":192,"average_he":40.5,"carbon_eff":4.71014286629,"density":0.0284989271505,"hdb_street":"EMPRESS RD","ORIG_FID":192}},
{"type":"Feature","id":193,"geometry":{"type":"Point","coordinates":[103.79933393157204,1.300039711042718]},"properties":{"FID":193,"average_he":38.5615384615,"carbon_eff":2.49880015622,"density":0.16045455531,"hdb_street":"TANGLIN HALT RD","ORIG_FID":193}},
{"type":"Feature","id":194,"geometry":{"type":"Point","coordinates":[103.79994446368805,1.3042940942316374]},"properties":{"FID":194,"average_he":36.02,"carbon_eff":1.90939805864,"density":0.246707128255,"hdb_street":"C'WEALTH CL","ORIG_FID":194}},
{"type":"Feature","id":195,"geometry":{"type":"Point","coordinates":[103.85061454100634,1.3150489828292842]},"properties":{"FID":195,"average_he":23.7,"carbon_eff":2.75525969107,"density":0.311426402099,"hdb_street":"OWEN RD","ORIG_FID":195}},
{"type":"Feature","id":196,"geometry":{"type":"Point","coordinates":[103.85056182128402,1.3133688947740187]},"properties":{"FID":196,"average_he":47.9666666667,"carbon_eff":2.40993463017,"density":0.200730492944,"hdb_street":"DORSET RD","ORIG_FID":196}},
{"type":"Feature","id":197,"geometry":{"type":"Point","coordinates":[103.84913092276271,1.315943852448747]},"properties":{"FID":197,"average_he":28.74,"carbon_eff":1.83209416827,"density":0.230350241942,"hdb_street":"CAMBRIDGE RD","ORIG_FID":197}},
{"type":"Feature","id":198,"geometry":{"type":"Point","coordinates":[103.85179752111623,1.3117176764287293]},"properties":{"FID":198,"average_he":85.3,"carbon_eff":1.80609860965,"density":0.450088133936,"hdb_street":"FARRER PK RD","ORIG_FID":198}},
{"type":"Feature","id":199,"geometry":{"type":"Point","coordinates":[103.85064608588725,1.3147510645653058]},"properties":{"FID":199,"average_he":40.5,"carbon_eff":2.74420771604,"density":0.12457382772,"hdb_street":"GLOUCESTER RD","ORIG_FID":199}},
{"type":"Feature","id":200,"geometry":{"type":"Point","coordinates":[103.83158207825524,1.368579405486621]},"properties":{"FID":200,"average_he":71.3,"carbon_eff":1.76038203141,"density":0.812372762673,"hdb_street":"ANG MO KIO AVE 2","ORIG_FID":200}},
{"type":"Feature","id":201,"geometry":{"type":"Point","coordinates":[103.85667852718909,1.3308949615404904]},"properties":{"FID":201,"average_he":22.8384615385,"carbon_eff":2.06142718862,"density":0.24303070553,"hdb_street":"KIM KEAT LINK","ORIG_FID":201}},
{"type":"Feature","id":202,"geometry":{"type":"Point","coordinates":[103.85809669093543,1.332087008700529]},"properties":{"FID":202,"average_he":37.0777777778,"carbon_eff":1.48566743265,"density":0.189036890408,"hdb_street":"KIM KEAT AVE","ORIG_FID":202}},
{"type":"Feature","id":203,"geometry":{"type":"Point","coordinates":[103.87967546039683,1.3522513058539576]},"properties":{"FID":203,"average_he":34.1,"carbon_eff":1.85827745557,"density":0.280631797656,"hdb_street":"HOUGANG ST 11","ORIG_FID":203}},
{"type":"Feature","id":204,"geometry":{"type":"Point","coordinates":[103.9369734155819,1.3818520818172708]},"properties":{"FID":204,"average_he":39.7,"carbon_eff":1.54329946411,"density":0.239184832549,"hdb_street":"PASIR RIS ST 72","ORIG_FID":204}},
{"type":"Feature","id":205,"geometry":{"type":"Point","coordinates":[103.93807901433424,1.37956352044971]},"properties":{"FID":205,"average_he":38.8789473684,"carbon_eff":1.59235642376,"density":0.171577945358,"hdb_street":"PASIR RIS DR 10","ORIG_FID":205}},
{"type":"Feature","id":206,"geometry":{"type":"Point","coordinates":[103.94062005127478,1.3790960711368763]},"properties":{"FID":206,"average_he":37.7,"carbon_eff":1.9832361143,"density":0.222448184424,"hdb_street":"PASIR RIS DR 3","ORIG_FID":206}},
{"type":"Feature","id":207,"geometry":{"type":"Point","coordinates":[103.94252060838718,1.3760600494143884]},"properties":{"FID":207,"average_he":47.5,"carbon_eff":1.53011812586,"density":0.174490794332,"hdb_street":"ELIAS RD","ORIG_FID":207}},
{"type":"Feature","id":208,"geometry":{"type":"Point","coordinates":[103.944713736225,1.375121337310927]},"properties":{"FID":208,"average_he":42.18,"carbon_eff":1.65976601959,"density":0.210051762062,"hdb_street":"PASIR RIS ST 52","ORIG_FID":208}},
{"type":"Feature","id":209,"geometry":{"type":"Point","coordinates":[103.94667965197404,1.3740836715908284]},"properties":{"FID":209,"average_he":39.2076923077,"carbon_eff":1.66182915179,"density":0.236242258307,"hdb_street":"PASIR RIS ST 53","ORIG_FID":209}},
{"type":"Feature","id":210,"geometry":{"type":"Point","coordinates":[103.95988523911434,1.3656416361062786]},"properties":{"FID":210,"average_he":36.44,"carbon_eff":2.02390218851,"density":0.150376174381,"hdb_street":"PASIR RIS ST 12","ORIG_FID":210}},
{"type":"Feature","id":211,"geometry":{"type":"Point","coordinates":[103.95767788744517,1.3657526798713593]},"properties":{"FID":211,"average_he":30.1088888889,"carbon_eff":1.78208563432,"density":0.166293685317,"hdb_street":"PASIR RIS ST 11","ORIG_FID":211}},
{"type":"Feature","id":212,"geometry":{"type":"Point","coordinates":[103.8427844110023,1.2760409757226867]},"properties":{"FID":212,"average_he":70.9,"carbon_eff":0.61672709557,"density":0.749034355651,"hdb_street":"TG PAGAR PLAZA","ORIG_FID":212}},
{"type":"Feature","id":213,"geometry":{"type":"Point","coordinates":[103.83927025014096,1.2768236725329445]},"properties":{"FID":213,"average_he":34.9,"carbon_eff":1.89362228933,"density":0.302991495117,"hdb_street":"EVERTON PK","ORIG_FID":213}},
{"type":"Feature","id":214,"geometry":{"type":"Point","coordinates":[103.83965720782601,1.2746743044219833]},"properties":{"FID":214,"average_he":85.3,"carbon_eff":1.15711270777,"density":0.138904813434,"hdb_street":"CANTONMENT CL","ORIG_FID":214}},
{"type":"Feature","id":215,"geometry":{"type":"Point","coordinates":[103.8426066937268,1.2810161331683576]},"properties":{"FID":215,"average_he":62.9,"carbon_eff":0.751714120957,"density":0.358363045375,"hdb_street":"KRETA AYER RD","ORIG_FID":215}},
{"type":"Feature","id":216,"geometry":{"type":"Point","coordinates":[103.84342954830797,1.2811907684407333]},"properties":{"FID":216,"average_he":60.1,"carbon_eff":1.74124618914,"density":0.825370044032,"hdb_street":"BANDA ST","ORIG_FID":216}},
{"type":"Feature","id":217,"geometry":{"type":"Point","coordinates":[103.84290309302021,1.281748838607795]},"properties":{"FID":217,"average_he":60.1,"carbon_eff":1.78546839489,"density":0.728775202173,"hdb_street":"SAGO LANE","ORIG_FID":217}},
{"type":"Feature","id":218,"geometry":{"type":"Point","coordinates":[103.83560425098077,1.274221181513489]},"properties":{"FID":218,"average_he":67.5666666667,"carbon_eff":2.31883701885,"density":0.134395640977,"hdb_street":"SPOTTISWOODE PK RD","ORIG_FID":218}},
{"type":"Feature","id":219,"geometry":{"type":"Point","coordinates":[103.84050661315257,1.287258975367712]},"properties":{"FID":219,"average_he":61.5,"carbon_eff":1.27695502081,"density":0.280660294506,"hdb_street":"CHIN SWEE RD","ORIG_FID":219}},
{"type":"Feature","id":220,"geometry":{"type":"Point","coordinates":[103.8380539359449,1.2878441878284275]},"properties":{"FID":220,"average_he":34.9,"carbon_eff":1.94335972326,"density":0.839689934492,"hdb_street":"JLN MINYAK","ORIG_FID":220}},
{"type":"Feature","id":221,"geometry":{"type":"Point","coordinates":[103.83814231432456,1.2868713051882326]},"properties":{"FID":221,"average_he":34.9,"carbon_eff":2.33390363228,"density":0.43102772222,"hdb_street":"YORK HILL","ORIG_FID":221}},
{"type":"Feature","id":222,"geometry":{"type":"Point","coordinates":[103.83134175147569,1.2771261357650778]},"properties":{"FID":222,"average_he":25.1,"carbon_eff":1.50522051967,"density":0.463332037741,"hdb_street":"SILAT AVE","ORIG_FID":222}},
{"type":"Feature","id":223,"geometry":{"type":"Point","coordinates":[103.82609160919233,1.2735149545585156]},"properties":{"FID":223,"average_he":37.7,"carbon_eff":1.98425472733,"density":0.250029457328,"hdb_street":"BT PURMEI RD","ORIG_FID":223}},
{"type":"Feature","id":224,"geometry":{"type":"Point","coordinates":[103.8221470222584,1.2738800579971548]},"properties":{"FID":224,"average_he":38.6333333333,"carbon_eff":2.22797923624,"density":0.329663880889,"hdb_street":"TELOK BLANGAH WAY","ORIG_FID":224}},
{"type":"Feature","id":225,"geometry":{"type":"Point","coordinates":[103.82019666546867,1.2773783456851309]},"properties":{"FID":225,"average_he":42.6333333333,"carbon_eff":2.46137546817,"density":0.170211726474,"hdb_street":"TELOK BLANGAH CRES","ORIG_FID":225}},
{"type":"Feature","id":226,"geometry":{"type":"Point","coordinates":[103.81540366659446,1.2839142634325411]},"properties":{"FID":226,"average_he":51.7,"carbon_eff":1.94849447987,"density":0.274683938732,"hdb_street":"BT MERAH CTRL","ORIG_FID":226}},
{"type":"Feature","id":227,"geometry":{"type":"Point","coordinates":[103.81680865832938,1.2873613030776379]},"properties":{"FID":227,"average_he":29.3,"carbon_eff":2.50203238345,"density":0.734778990942,"hdb_street":"REDHILL RD","ORIG_FID":227}},
{"type":"Feature","id":228,"geometry":{"type":"Point","coordinates":[103.8190649372856,1.2875663897761755]},"properties":{"FID":228,"average_he":42.74,"carbon_eff":1.23789116968,"density":0.229110317951,"hdb_street":"REDHILL LANE","ORIG_FID":228}},
{"type":"Feature","id":229,"geometry":{"type":"Point","coordinates":[103.82051359129802,1.2873667843791874]},"properties":{"FID":229,"average_he":46.1,"carbon_eff":2.07482523936,"density":0.415617955915,"hdb_street":"HENDERSON RD","ORIG_FID":229}},
{"type":"Feature","id":230,"geometry":{"type":"Point","coordinates":[103.82639086896455,1.2851667704678622]},"properties":{"FID":230,"average_he":85.3,"carbon_eff":2.01687123232,"density":0.53238279832,"hdb_street":"JLN MEMBINA","ORIG_FID":230}},
{"type":"Feature","id":231,"geometry":{"type":"Point","coordinates":[103.82460533553908,1.450549803612412]},"properties":{"FID":231,"average_he":39.66,"carbon_eff":2.09701098237,"density":0.307265337941,"hdb_street":"MONTREAL DR","ORIG_FID":231}},
{"type":"Feature","id":232,"geometry":{"type":"Point","coordinates":[103.82827175318828,1.2823057679636192]},"properties":{"FID":232,"average_he":49.74,"carbon_eff":2.54351995716,"density":0.0575759000882,"hdb_street":"KIM TIAN RD","ORIG_FID":232}},
{"type":"Feature","id":233,"geometry":{"type":"Point","coordinates":[103.82771071572091,1.2826650688735248]},"properties":{"FID":233,"average_he":54.9666666667,"carbon_eff":2.36343352464,"density":0.131487496473,"hdb_street":"KIM TIAN PL","ORIG_FID":233}},
{"type":"Feature","id":234,"geometry":{"type":"Point","coordinates":[103.8226187064489,1.4503704866563756]},"properties":{"FID":234,"average_he":37.7,"carbon_eff":1.97694907622,"density":0.361263152391,"hdb_street":"CANBERRA LINK","ORIG_FID":234}},
{"type":"Feature","id":235,"geometry":{"type":"Point","coordinates":[103.82038125350307,1.4464554651223245]},"properties":{"FID":235,"average_he":46.1,"carbon_eff":1.60596130677,"density":0.345159519923,"hdb_street":"SEMBAWANG VISTA","ORIG_FID":235}},
{"type":"Feature","id":236,"geometry":{"type":"Point","coordinates":[103.83221491456294,1.4326633854112094]},"properties":{"FID":236,"average_he":29.3848484848,"carbon_eff":2.16958276367,"density":0.260641908839,"hdb_street":"YISHUN ST 11","ORIG_FID":236}},
{"type":"Feature","id":237,"geometry":{"type":"Point","coordinates":[103.82977940842369,1.429214680179084]},"properties":{"FID":237,"average_he":27.06,"carbon_eff":2.3012799936,"density":0.223422789155,"hdb_street":"YISHUN AVE 5","ORIG_FID":237}},
{"type":"Feature","id":238,"geometry":{"type":"Point","coordinates":[103.83311385026057,1.4274700869302077]},"properties":{"FID":238,"average_he":29.0925925926,"carbon_eff":1.99342923905,"density":0.241472889273,"hdb_street":"YISHUN ST 72","ORIG_FID":238}},
{"type":"Feature","id":239,"geometry":{"type":"Point","coordinates":[103.83305702279392,1.4240963690155626]},"properties":{"FID":239,"average_he":29.9222222222,"carbon_eff":1.95422475374,"density":0.301329176599,"hdb_street":"YISHUN AVE 3","ORIG_FID":239}},
{"type":"Feature","id":240,"geometry":{"type":"Point","coordinates":[103.83379081408192,1.4214127676571973]},"properties":{"FID":240,"average_he":29.58,"carbon_eff":1.80043393607,"density":0.365474413611,"hdb_street":"YISHUN AVE 2","ORIG_FID":240}},
{"type":"Feature","id":241,"geometry":{"type":"Point","coordinates":[103.8305043551359,1.2845794492624831]},"properties":{"FID":241,"average_he":12.5,"carbon_eff":1.70741634214,"density":0.276711754072,"hdb_street":"KIM PONG RD","ORIG_FID":241}},
{"type":"Feature","id":242,"geometry":{"type":"Point","coordinates":[103.83085902006361,1.284364399977892]},"properties":{"FID":242,"average_he":12.5,"carbon_eff":1.33196211273,"density":0.320014890609,"hdb_street":"MOH GUAN TER","ORIG_FID":242}},
{"type":"Feature","id":243,"geometry":{"type":"Point","coordinates":[103.83135410672008,1.2853044722337952]},"properties":{"FID":243,"average_he":12.5,"carbon_eff":1.56591157236,"density":0.346785227027,"hdb_street":"LIM LIAK ST","ORIG_FID":243}},
{"type":"Feature","id":244,"geometry":{"type":"Point","coordinates":[103.83258734388586,1.285142649435016]},"properties":{"FID":244,"average_he":12.15,"carbon_eff":1.53695255502,"density":0.16582880123,"hdb_street":"TIONG BAHRU RD","ORIG_FID":244}},
{"type":"Feature","id":245,"geometry":{"type":"Point","coordinates":[103.83311650246137,1.2830478346766219]},"properties":{"FID":245,"average_he":10.6333333333,"carbon_eff":1.9618702763,"density":0.667867361671,"hdb_street":"TIONG POH RD","ORIG_FID":245}},
{"type":"Feature","id":246,"geometry":{"type":"Point","coordinates":[103.83159363877074,1.2845631896154683]},"properties":{"FID":246,"average_he":12.5,"carbon_eff":1.69727569484,"density":0.48409434652,"hdb_street":"KIM CHENG ST","ORIG_FID":246}},
{"type":"Feature","id":247,"geometry":{"type":"Point","coordinates":[103.83209334152288,1.2840795789621076]},"properties":{"FID":247,"average_he":10.26,"carbon_eff":1.51659941005,"density":0.477250749663,"hdb_street":"SENG POH RD","ORIG_FID":247}},
{"type":"Feature","id":248,"geometry":{"type":"Point","coordinates":[103.83102217528915,1.2827121735722056]},"properties":{"FID":248,"average_he":15.3,"carbon_eff":1.98913125232,"density":0.903972501967,"hdb_street":"CHAY YAN ST","ORIG_FID":248}},
{"type":"Feature","id":249,"geometry":{"type":"Point","coordinates":[103.83371749187377,1.2844747419485743]},"properties":{"FID":249,"average_he":9.7,"carbon_eff":2.34553984695,"density":0.958584456385,"hdb_street":"ENG HOON ST","ORIG_FID":249}},
{"type":"Feature","id":250,"geometry":{"type":"Point","coordinates":[103.83063239084207,1.2832094958691052]},"properties":{"FID":250,"average_he":15.3,"carbon_eff":0.816706683641,"density":0.546119467188,"hdb_street":"YONG SIAK ST","ORIG_FID":250}},
{"type":"Feature","id":251,"geometry":{"type":"Point","coordinates":[103.8326082112577,1.2835919445332487]},"properties":{"FID":251,"average_he":9.7,"carbon_eff":2.15683093827,"density":0.600530358568,"hdb_street":"ENG WATT ST","ORIG_FID":251}},
{"type":"Feature","id":252,"geometry":{"type":"Point","coordinates":[103.83215492451446,1.2833642894883759]},"properties":{"FID":252,"average_he":9.7,"carbon_eff":6.53902118903,"density":0.199758336495,"hdb_street":"GUAN CHUAN ST","ORIG_FID":252}},
{"type":"Feature","id":253,"geometry":{"type":"Point","coordinates":[103.80417323602262,1.2862747455391477]},"properties":{"FID":253,"average_he":12.5,"carbon_eff":1.01946632864,"density":0.24605252641,"hdb_street":"BT MERAH LANE 1","ORIG_FID":253}},
{"type":"Feature","id":254,"geometry":{"type":"Point","coordinates":[103.81328085208953,1.2882483151997306]},"properties":{"FID":254,"average_he":28.6411764706,"carbon_eff":1.80462037201,"density":0.183199617865,"hdb_street":"LENGKOK BAHRU","ORIG_FID":254}},
{"type":"Feature","id":255,"geometry":{"type":"Point","coordinates":[103.81614932160869,1.2882524170484992]},"properties":{"FID":255,"average_he":34.9,"carbon_eff":2.00083138182,"density":0.0783073588488,"hdb_street":"HOY FATT RD","ORIG_FID":255}},
{"type":"Feature","id":256,"geometry":{"type":"Point","coordinates":[103.82202196453245,1.2900213465867654]},"properties":{"FID":256,"average_he":44.98,"carbon_eff":1.6481641986,"density":0.268940292344,"hdb_street":"HENDERSON CRES","ORIG_FID":256}},
{"type":"Feature","id":257,"geometry":{"type":"Point","coordinates":[103.8296870614244,1.2874077660813517]},"properties":{"FID":257,"average_he":27.5769230769,"carbon_eff":1.91318024891,"density":0.17140133348,"hdb_street":"JLN BT HO SWEE","ORIG_FID":257}},
{"type":"Feature","id":258,"geometry":{"type":"Point","coordinates":[103.8318959756342,1.2879449886472265]},"properties":{"FID":258,"average_he":26.5,"carbon_eff":2.33628393041,"density":0.863351613857,"hdb_street":"TAMAN HO SWEE","ORIG_FID":258}},
{"type":"Feature","id":259,"geometry":{"type":"Point","coordinates":[103.83051787765197,1.2874562375274583]},"properties":{"FID":259,"average_he":29.3,"carbon_eff":4.29665380249,"density":0.142164173722,"hdb_street":"JLN KLINIK","ORIG_FID":259}},
{"type":"Feature","id":260,"geometry":{"type":"Point","coordinates":[103.8302265676537,1.2892359872023202]},"properties":{"FID":260,"average_he":88.9615384615,"carbon_eff":1.90483731271,"density":0.0776064772015,"hdb_street":"HAVELOCK RD","ORIG_FID":260}},
{"type":"Feature","id":261,"geometry":{"type":"Point","coordinates":[103.82732988383444,1.288718564289179]},"properties":{"FID":261,"average_he":29.3,"carbon_eff":1.81790502629,"density":0.347133497618,"hdb_street":"BEO CRES","ORIG_FID":261}},
{"type":"Feature","id":262,"geometry":{"type":"Point","coordinates":[103.83260762376717,1.2906521922753946]},"properties":{"FID":262,"average_he":71.3,"carbon_eff":2.26748476723,"density":1.00000000004,"hdb_street":"ZION RD","ORIG_FID":262}},
{"type":"Feature","id":263,"geometry":{"type":"Point","coordinates":[103.8276103414033,1.2917436054528724]},"properties":{"FID":263,"average_he":50.3,"carbon_eff":2.43733458606,"density":0.285392847633,"hdb_street":"DELTA AVE","ORIG_FID":263}},
{"type":"Feature","id":264,"geometry":{"type":"Point","coordinates":[103.81494711014379,1.2924027808419822]},"properties":{"FID":264,"average_he":41.9,"carbon_eff":1.2810658854,"density":0.384458962421,"hdb_street":"CLARENCE LANE","ORIG_FID":264}},
{"type":"Feature","id":265,"geometry":{"type":"Point","coordinates":[103.82069591444689,1.291845359686891]},"properties":{"FID":265,"average_he":40.5,"carbon_eff":4.24732130647,"density":0.0584348613876,"hdb_street":"INDUS RD","ORIG_FID":265}},
{"type":"Feature","id":266,"geometry":{"type":"Point","coordinates":[103.81009868828146,1.2732501486630856]},"properties":{"FID":266,"average_he":42.7105263158,"carbon_eff":1.82873154076,"density":0.190975836091,"hdb_street":"TELOK BLANGAH DR","ORIG_FID":266}},
{"type":"Feature","id":267,"geometry":{"type":"Point","coordinates":[103.81070097294247,1.2757472167132768]},"properties":{"FID":267,"average_he":54.6555555556,"carbon_eff":1.66161443201,"density":0.157446810966,"hdb_street":"TELOK BLANGAH HTS","ORIG_FID":267}},
{"type":"Feature","id":268,"geometry":{"type":"Point","coordinates":[103.85069932076838,1.3035036164537774]},"properties":{"FID":268,"average_he":43.3,"carbon_eff":2.06392689029,"density":0.552818505239,"hdb_street":"SELEGIE RD","ORIG_FID":268}},
{"type":"Feature","id":269,"geometry":{"type":"Point","coordinates":[103.91815946433329,1.3044571203528013]},"properties":{"FID":269,"average_he":71.3,"carbon_eff":1.71869045558,"density":0.346480950894,"hdb_street":"MARINE TER","ORIG_FID":269}},
{"type":"Feature","id":270,"geometry":{"type":"Point","coordinates":[103.91231934992457,1.3054504483353606]},"properties":{"FID":270,"average_he":29.3,"carbon_eff":1.54582383305,"density":0.502525058947,"hdb_street":"MARINE CRES","ORIG_FID":270}},
{"type":"Feature","id":271,"geometry":{"type":"Point","coordinates":[103.80392407423206,1.293615472577396]},"properties":{"FID":271,"average_he":40.0692307692,"carbon_eff":1.46541071532,"density":0.212137641586,"hdb_street":"MEI LING ST","ORIG_FID":271}},
{"type":"Feature","id":272,"geometry":{"type":"Point","coordinates":[103.80008280181725,1.2933680010072552]},"properties":{"FID":272,"average_he":50.7666666667,"carbon_eff":1.26943293002,"density":0.366202264208,"hdb_street":"QUEEN'S CL","ORIG_FID":272}},
{"type":"Feature","id":273,"geometry":{"type":"Point","coordinates":[103.79644622978873,1.3077157301559887]},"properties":{"FID":273,"average_he":59.0818181818,"carbon_eff":1.8461200285,"density":0.235166968178,"hdb_street":"HOLLAND CL","ORIG_FID":273}},
{"type":"Feature","id":274,"geometry":{"type":"Point","coordinates":[103.79497438344478,1.3064587974767565]},"properties":{"FID":274,"average_he":71.3,"carbon_eff":1.04766517289,"density":0.636456942932,"hdb_street":"C'WEALTH AVE","ORIG_FID":274}},
{"type":"Feature","id":275,"geometry":{"type":"Point","coordinates":[103.79631219918787,1.3084288311317918]},"properties":{"FID":275,"average_he":51.7,"carbon_eff":2.75047585267,"density":0.0596723856731,"hdb_street":"HOLLAND AVE","ORIG_FID":275}},
{"type":"Feature","id":276,"geometry":{"type":"Point","coordinates":[103.80001112834,1.3069883359142582]},"properties":{"FID":276,"average_he":29.3,"carbon_eff":2.15876063654,"density":0.128506108349,"hdb_street":"C'WEALTH CRES","ORIG_FID":276}},
{"type":"Feature","id":277,"geometry":{"type":"Point","coordinates":[103.78301475586358,1.3031408688004813]},"properties":{"FID":277,"average_he":36.3,"carbon_eff":1.40352585148,"density":0.274189017176,"hdb_street":"DOVER RD","ORIG_FID":277}},
{"type":"Feature","id":278,"geometry":{"type":"Point","coordinates":[103.78586273087194,1.3054528529369156]},"properties":{"FID":278,"average_he":71.3,"carbon_eff":1.801276878,"density":0.498670542573,"hdb_street":"DOVER CL EAST","ORIG_FID":278}},
{"type":"Feature","id":279,"geometry":{"type":"Point","coordinates":[103.78300731722251,1.3059873918890315]},"properties":{"FID":279,"average_he":54.9,"carbon_eff":1.66924493463,"density":0.0689424880012,"hdb_street":"DOVER CRES","ORIG_FID":279}},
{"type":"Feature","id":280,"geometry":{"type":"Point","coordinates":[103.76278486667897,1.3208656511083554]},"properties":{"FID":280,"average_he":37.2333333333,"carbon_eff":1.2331974822,"density":0.367031227935,"hdb_street":"CLEMENTI AVE 6","ORIG_FID":280}},
{"type":"Feature","id":281,"geometry":{"type":"Point","coordinates":[103.78401287371248,1.3076722585734226]},"properties":{"FID":281,"average_he":109.227272727,"carbon_eff":1.29901812151,"density":0.0768447727481,"hdb_street":"GHIM MOH LINK","ORIG_FID":281}},
{"type":"Feature","id":282,"geometry":{"type":"Point","coordinates":[103.7705955650328,1.3112388871249714]},"properties":{"FID":282,"average_he":50.7666666667,"carbon_eff":1.74523454885,"density":0.295559280372,"hdb_street":"C'WEALTH AVE WEST","ORIG_FID":282}},
{"type":"Feature","id":283,"geometry":{"type":"Point","coordinates":[103.76994101386057,1.3098010418870216]},"properties":{"FID":283,"average_he":81.7363636364,"carbon_eff":1.27894541687,"density":0.659927536728,"hdb_street":"CLEMENTI AVE 1","ORIG_FID":283}},
{"type":"Feature","id":284,"geometry":{"type":"Point","coordinates":[103.76250994424893,1.3045798743454375]},"properties":{"FID":284,"average_he":39.1,"carbon_eff":1.68224536095,"density":0.236217603353,"hdb_street":"CLEMENTI WEST ST 2","ORIG_FID":284}},
{"type":"Feature","id":285,"geometry":{"type":"Point","coordinates":[103.7602505406453,1.3113425808053245]},"properties":{"FID":285,"average_he":33.5,"carbon_eff":1.72669540198,"density":0.157715858975,"hdb_street":"WEST COAST DR","ORIG_FID":285}},
{"type":"Feature","id":286,"geometry":{"type":"Point","coordinates":[103.83187131588478,1.4370799874425502]},"properties":{"FID":286,"average_he":39.5666666667,"carbon_eff":2.0243211973,"density":0.36661035547,"hdb_street":"YISHUN AVE 7","ORIG_FID":286}},
{"type":"Feature","id":287,"geometry":{"type":"Point","coordinates":[103.83514036550481,1.4358541886672893]},"properties":{"FID":287,"average_he":38.4,"carbon_eff":2.71715782929,"density":0.524584587477,"hdb_street":"YISHUN ST 20","ORIG_FID":287}},
{"type":"Feature","id":288,"geometry":{"type":"Point","coordinates":[103.83707602447517,1.4329288793622927]},"properties":{"FID":288,"average_he":30.1,"carbon_eff":2.19707104013,"density":0.232014869926,"hdb_street":"YISHUN ST 21","ORIG_FID":288}},
{"type":"Feature","id":289,"geometry":{"type":"Point","coordinates":[103.83838769466634,1.4369761374139123]},"properties":{"FID":289,"average_he":26.7153846154,"carbon_eff":1.9681618011,"density":0.241179366435,"hdb_street":"YISHUN ST 22","ORIG_FID":289}},
{"type":"Feature","id":290,"geometry":{"type":"Point","coordinates":[103.84256828911907,1.4347452546686503]},"properties":{"FID":290,"average_he":31.6333333333,"carbon_eff":1.91298125959,"density":0.204765574997,"hdb_street":"YISHUN AVE 9","ORIG_FID":290}},
{"type":"Feature","id":291,"geometry":{"type":"Point","coordinates":[103.84075109717756,1.4298131867045245]},"properties":{"FID":291,"average_he":35.2111111111,"carbon_eff":2.04582830364,"density":0.250333257283,"hdb_street":"YISHUN CTRL","ORIG_FID":291}},
{"type":"Feature","id":292,"geometry":{"type":"Point","coordinates":[103.84509486165636,1.4200968801810216]},"properties":{"FID":292,"average_he":37.7,"carbon_eff":2.56603745659,"density":0.402962369599,"hdb_street":"YISHUN ST 41","ORIG_FID":292}},
{"type":"Feature","id":293,"geometry":{"type":"Point","coordinates":[103.83718376162568,1.4264614427845568]},"properties":{"FID":293,"average_he":30.1,"carbon_eff":1.27667947394,"density":0.425356882908,"hdb_street":"YISHUN CTRL 1","ORIG_FID":293}},
{"type":"Feature","id":294,"geometry":{"type":"Point","coordinates":[103.83719681201524,1.4200007636622562]},"properties":{"FID":294,"average_he":30.9390243902,"carbon_eff":1.90419629243,"density":0.210194064039,"hdb_street":"YISHUN ST 61","ORIG_FID":294}},
{"type":"Feature","id":295,"geometry":{"type":"Point","coordinates":[103.83513832123741,1.414263203103363]},"properties":{"FID":295,"average_he":28.3,"carbon_eff":1.86666310031,"density":0.210246181627,"hdb_street":"YISHUN ST 81","ORIG_FID":295}},
{"type":"Feature","id":296,"geometry":{"type":"Point","coordinates":[103.73985072890807,1.3216122640994137]},"properties":{"FID":296,"average_he":51.3093023256,"carbon_eff":1.85241773399,"density":0.22907262958,"hdb_street":"TEBAN GDNS RD","ORIG_FID":296}},
{"type":"Feature","id":297,"geometry":{"type":"Point","coordinates":[103.93423694134685,1.359306692885462]},"properties":{"FID":297,"average_he":40.5,"carbon_eff":1.72630522945,"density":0.249165309324,"hdb_street":"TAMPINES ST 72","ORIG_FID":297}},
{"type":"Feature","id":298,"geometry":{"type":"Point","coordinates":[103.93603882999028,1.3578287785744305]},"properties":{"FID":298,"average_he":40.5,"carbon_eff":1.71538750371,"density":0.123614393109,"hdb_street":"TAMPINES ST 71","ORIG_FID":298}},
{"type":"Feature","id":299,"geometry":{"type":"Point","coordinates":[103.93596984304757,1.3551590512098435]},"properties":{"FID":299,"average_he":48.9,"carbon_eff":1.73899029381,"density":0.0709757387704,"hdb_street":"TAMPINES CTRL 7","ORIG_FID":299}},
{"type":"Feature","id":300,"geometry":{"type":"Point","coordinates":[103.93416476142171,1.35335099700469]},"properties":{"FID":300,"average_he":30.5727272727,"carbon_eff":1.89225154198,"density":0.169223047241,"hdb_street":"TAMPINES ST 83","ORIG_FID":300}},
{"type":"Feature","id":301,"geometry":{"type":"Point","coordinates":[103.9324354866994,1.3524949088784868]},"properties":{"FID":301,"average_he":34.9,"carbon_eff":2.10940291059,"density":0.181859159972,"hdb_street":"TAMPINES ST 84","ORIG_FID":301}},
{"type":"Feature","id":302,"geometry":{"type":"Point","coordinates":[103.93365515068815,1.3484808550819856]},"properties":{"FID":302,"average_he":28.9769230769,"carbon_eff":1.78845405698,"density":0.167094272817,"hdb_street":"TAMPINES ST 81","ORIG_FID":302}},
{"type":"Feature","id":303,"geometry":{"type":"Point","coordinates":[103.93665337461354,1.3514927437262427]},"properties":{"FID":303,"average_he":33.8111111111,"carbon_eff":1.77858376386,"density":0.206979780184,"hdb_street":"TAMPINES ST 82","ORIG_FID":303}},
{"type":"Feature","id":304,"geometry":{"type":"Point","coordinates":[103.93635250770203,1.336177739646183]},"properties":{"FID":304,"average_he":50.86,"carbon_eff":2.70179531316,"density":0.234142862558,"hdb_street":"BEDOK RESERVOIR VIEW","ORIG_FID":304}},
{"type":"Feature","id":305,"geometry":{"type":"Point","coordinates":[103.9393632598984,1.3335160513022908]},"properties":{"FID":305,"average_he":42.3,"carbon_eff":2.09493745153,"density":0.133821389942,"hdb_street":"BEDOK NTH AVE 4","ORIG_FID":305}},
{"type":"Feature","id":306,"geometry":{"type":"Point","coordinates":[103.7690370865778,1.3225133461377727]},"properties":{"FID":306,"average_he":27.2,"carbon_eff":1.23057785657,"density":0.396038490679,"hdb_street":"CLEMENTI ST 14","ORIG_FID":306}},
{"type":"Feature","id":307,"geometry":{"type":"Point","coordinates":[103.77104895396339,1.3238832992920795]},"properties":{"FID":307,"average_he":34.5888888889,"carbon_eff":1.943465304,"density":0.24945533264,"hdb_street":"CLEMENTI ST 13","ORIG_FID":307}},
{"type":"Feature","id":308,"geometry":{"type":"Point","coordinates":[103.8554686270368,1.3077302333510787]},"properties":{"FID":308,"average_he":60.8,"carbon_eff":2.01022361601,"density":0.25887467638,"hdb_street":"ROWELL RD","ORIG_FID":308}},
{"type":"Feature","id":309,"geometry":{"type":"Point","coordinates":[103.85051254071371,1.3062118694106684]},"properties":{"FID":309,"average_he":52.4,"carbon_eff":1.79636773882,"density":0.203468188417,"hdb_street":"BUFFALO RD","ORIG_FID":309}},
{"type":"Feature","id":310,"geometry":{"type":"Point","coordinates":[103.85150182015336,1.3076557488501521]},"properties":{"FID":310,"average_he":37.7,"carbon_eff":1.62163852846,"density":0.600025041118,"hdb_street":"CHANDER RD","ORIG_FID":310}},
{"type":"Feature","id":311,"geometry":{"type":"Point","coordinates":[103.7912590724048,1.4329543394197564]},"properties":{"FID":311,"average_he":34.1695652174,"carbon_eff":2.05750407648,"density":0.167749069469,"hdb_street":"WOODLANDS DR 14","ORIG_FID":311}},
{"type":"Feature","id":312,"geometry":{"type":"Point","coordinates":[103.78955576078224,1.430163286222109]},"properties":{"FID":312,"average_he":32.1,"carbon_eff":2.00264823455,"density":0.454756435979,"hdb_street":"CHAMPIONS WAY","ORIG_FID":312}},
{"type":"Feature","id":313,"geometry":{"type":"Point","coordinates":[103.76161895508723,1.3846575807811579]},"properties":{"FID":313,"average_he":64.3608695652,"carbon_eff":1.92718556447,"density":0.0671372488917,"hdb_street":"SENJA RD","ORIG_FID":313}},
{"type":"Feature","id":314,"geometry":{"type":"Point","coordinates":[103.85257373640965,1.3088675608257907]},"properties":{"FID":314,"average_he":51.7,"carbon_eff":1.54024395679,"density":0.635278073026,"hdb_street":"KLANG LANE","ORIG_FID":314}},
{"type":"Feature","id":315,"geometry":{"type":"Point","coordinates":[103.78560448128177,1.4338632737607262]},"properties":{"FID":315,"average_he":33.7333333333,"carbon_eff":1.7445479694,"density":0.240258942547,"hdb_street":"WOODLANDS AVE 5","ORIG_FID":315}},
{"type":"Feature","id":316,"geometry":{"type":"Point","coordinates":[103.77984291726133,1.4312015018084785]},"properties":{"FID":316,"average_he":26.85,"carbon_eff":1.96952215475,"density":0.212554144927,"hdb_street":"WOODLANDS ST 32","ORIG_FID":316}},
{"type":"Feature","id":317,"geometry":{"type":"Point","coordinates":[103.78207478063874,1.4333584408246962]},"properties":{"FID":317,"average_he":36.3,"carbon_eff":2.2627752849,"density":0.480301096445,"hdb_street":"WOODLANDS AVE 3","ORIG_FID":317}},
{"type":"Feature","id":318,"geometry":{"type":"Point","coordinates":[103.77542966618688,1.4311598204821925]},"properties":{"FID":318,"average_he":27.8176470588,"carbon_eff":1.61539594835,"density":0.373650400374,"hdb_street":"WOODLANDS ST 31","ORIG_FID":318}},
{"type":"Feature","id":319,"geometry":{"type":"Point","coordinates":[103.9446198860661,1.3193311192765866]},"properties":{"FID":319,"average_he":37,"carbon_eff":1.65331679321,"density":0.223301126006,"hdb_street":"BEDOK STH AVE 3","ORIG_FID":319}},
{"type":"Feature","id":320,"geometry":{"type":"Point","coordinates":[103.9110441454509,1.3243361688240307]},"properties":{"FID":320,"average_he":30.7933333333,"carbon_eff":1.25376432683,"density":0.267212637176,"hdb_street":"LENGKONG TIGA","ORIG_FID":320}},
{"type":"Feature","id":321,"geometry":{"type":"Point","coordinates":[103.85578116371155,1.322493247926662]},"properties":{"FID":321,"average_he":55.375,"carbon_eff":2.05229381715,"density":0.227237505716,"hdb_street":"WHAMPOA DR","ORIG_FID":321}},
{"type":"Feature","id":322,"geometry":{"type":"Point","coordinates":[103.75714730423083,1.379889748528427]},"properties":{"FID":322,"average_he":51.0777777778,"carbon_eff":1.41642996718,"density":0.171493059834,"hdb_street":"JLN TECK WHYE","ORIG_FID":322}},
{"type":"Feature","id":323,"geometry":{"type":"Point","coordinates":[103.8634468186666,1.3048570856832367]},"properties":{"FID":323,"average_he":49.7,"carbon_eff":2.55210465921,"density":0.238040936645,"hdb_street":"NTH BRIDGE RD","ORIG_FID":323}},
{"type":"Feature","id":324,"geometry":{"type":"Point","coordinates":[103.86247739969079,1.3034779998320238]},"properties":{"FID":324,"average_he":46.1,"carbon_eff":1.43252056804,"density":0.368166091629,"hdb_street":"JLN SULTAN","ORIG_FID":324}},
{"type":"Feature","id":325,"geometry":{"type":"Point","coordinates":[103.85696749301965,1.3056257869804]},"properties":{"FID":325,"average_he":46.1,"carbon_eff":2.2957866979,"density":0.500611088654,"hdb_street":"KELANTAN RD","ORIG_FID":325}},
{"type":"Feature","id":326,"geometry":{"type":"Point","coordinates":[103.77347136896246,1.4284797976057515]},"properties":{"FID":326,"average_he":35.796,"carbon_eff":1.77542352888,"density":0.196894866654,"hdb_street":"WOODLANDS ST 41","ORIG_FID":326}},
{"type":"Feature","id":327,"geometry":{"type":"Point","coordinates":[103.77644639542652,1.433501219002804]},"properties":{"FID":327,"average_he":28.74,"carbon_eff":1.79854276754,"density":0.418017116662,"hdb_street":"WOODLANDS ST 11","ORIG_FID":327}},
{"type":"Feature","id":328,"geometry":{"type":"Point","coordinates":[103.73881334860471,1.3812576093316058]},"properties":{"FID":328,"average_he":38.4466666667,"carbon_eff":1.57152696256,"density":0.12184258318,"hdb_street":"CHOA CHU KANG AVE 4","ORIG_FID":328}},
{"type":"Feature","id":329,"geometry":{"type":"Point","coordinates":[103.74549445247496,1.3837389325548883]},"properties":{"FID":329,"average_he":40.5,"carbon_eff":1.29813165456,"density":0.320939274035,"hdb_street":"CHOA CHU KANG LOOP","ORIG_FID":329}},
{"type":"Feature","id":330,"geometry":{"type":"Point","coordinates":[103.74481227298743,1.3811506710209631]},"properties":{"FID":330,"average_he":32.5307692308,"carbon_eff":1.60194794941,"density":0.106904969328,"hdb_street":"CHOA CHU KANG CTRL","ORIG_FID":330}},
{"type":"Feature","id":331,"geometry":{"type":"Point","coordinates":[103.74040590161414,1.3795928038028018]},"properties":{"FID":331,"average_he":37.0875,"carbon_eff":1.61751297969,"density":0.193122425886,"hdb_street":"CHOA CHU KANG AVE 3","ORIG_FID":331}},
{"type":"Feature","id":332,"geometry":{"type":"Point","coordinates":[103.7795635198163,1.4383470606163886]},"properties":{"FID":332,"average_he":24.12,"carbon_eff":1.80002501712,"density":0.334488814729,"hdb_street":"MARSILING RISE","ORIG_FID":332}},
{"type":"Feature","id":333,"geometry":{"type":"Point","coordinates":[103.77706100092526,1.4383295855605156]},"properties":{"FID":333,"average_he":38.4466666667,"carbon_eff":1.88858535968,"density":0.201176712036,"hdb_street":"MARSILING RD","ORIG_FID":333}},
{"type":"Feature","id":334,"geometry":{"type":"Point","coordinates":[103.77562596386295,1.4438569471579208]},"properties":{"FID":334,"average_he":43.5333333333,"carbon_eff":2.83005611743,"density":0.0653800763673,"hdb_street":"MARSILING LANE","ORIG_FID":334}},
{"type":"Feature","id":335,"geometry":{"type":"Point","coordinates":[103.7728250216611,1.4464502127612444]},"properties":{"FID":335,"average_he":36.3,"carbon_eff":2.15490046386,"density":0.435436641283,"hdb_street":"MARSILING CRES","ORIG_FID":335}},
{"type":"Feature","id":336,"geometry":{"type":"Point","coordinates":[103.89843655156423,1.3183896194458706]},"properties":{"FID":336,"average_he":31.05,"carbon_eff":1.25365807469,"density":0.404495057417,"hdb_street":"EUNOS RD 5","ORIG_FID":336}},
{"type":"Feature","id":337,"geometry":{"type":"Point","coordinates":[103.84250889784778,1.325229215320995]},"properties":{"FID":337,"average_he":12.5,"carbon_eff":0.218499971687,"density":0.463615707682,"hdb_street":"THOMSON RD","ORIG_FID":337}},
{"type":"Feature","id":338,"geometry":{"type":"Point","coordinates":[103.88463729390064,1.3225380158098075]},"properties":{"FID":338,"average_he":44.1,"carbon_eff":2.01571795248,"density":0.154995148009,"hdb_street":"PAYA LEBAR WAY","ORIG_FID":338}},
{"type":"Feature","id":339,"geometry":{"type":"Point","coordinates":[103.88750207817917,1.32367340129136]},"properties":{"FID":339,"average_he":42.95,"carbon_eff":1.92120944263,"density":0.264593681085,"hdb_street":"PIPIT RD","ORIG_FID":339}},
{"type":"Feature","id":340,"geometry":{"type":"Point","coordinates":[103.81579391798786,1.4554663000553547]},"properties":{"FID":340,"average_he":51.35,"carbon_eff":2.09893409741,"density":0.16286275931,"hdb_street":"ADMIRALTY LINK","ORIG_FID":340}},
{"type":"Feature","id":341,"geometry":{"type":"Point","coordinates":[103.89815617917175,1.3173245947916798]},"properties":{"FID":341,"average_he":54.5,"carbon_eff":1.2200320825,"density":0.332513110519,"hdb_street":"GEYLANG SERAI","ORIG_FID":341}},
{"type":"Feature","id":342,"geometry":{"type":"Point","coordinates":[103.81890041289725,1.449645893588829]},"properties":{"FID":342,"average_he":40.5,"carbon_eff":1.84918881659,"density":0.999999987975,"hdb_street":"SEMBAWANG WAY","ORIG_FID":342}},
{"type":"Feature","id":343,"geometry":{"type":"Point","coordinates":[103.93555855680047,1.3763686843640477]},"properties":{"FID":343,"average_he":45.86,"carbon_eff":1.6923488625,"density":0.163524768293,"hdb_street":"PASIR RIS ST 71","ORIG_FID":343}},
{"type":"Feature","id":344,"geometry":{"type":"Point","coordinates":[103.75263119645889,1.3646551817387573]},"properties":{"FID":344,"average_he":73.4,"carbon_eff":1.51580052561,"density":0.20981845642,"hdb_street":"BT BATOK WEST AVE 5","ORIG_FID":344}},
{"type":"Feature","id":345,"geometry":{"type":"Point","coordinates":[103.95968039764584,1.3724148836021504]},"properties":{"FID":345,"average_he":33.5,"carbon_eff":1.98669342966,"density":0.136902989184,"hdb_street":"PASIR RIS DR 4","ORIG_FID":345}},
{"type":"Feature","id":346,"geometry":{"type":"Point","coordinates":[103.95629109351992,1.3723508352805265]},"properties":{"FID":346,"average_he":30.8555555556,"carbon_eff":1.91007728448,"density":0.176801591505,"hdb_street":"PASIR RIS DR 6","ORIG_FID":346}},
{"type":"Feature","id":347,"geometry":{"type":"Point","coordinates":[103.95837646809905,1.3730667286292557]},"properties":{"FID":347,"average_he":29.3,"carbon_eff":1.75136981745,"density":0.505096450711,"hdb_street":"PASIR RIS ST 41","ORIG_FID":347}},
{"type":"Feature","id":348,"geometry":{"type":"Point","coordinates":[103.8849853071049,1.3179822008793487]},"properties":{"FID":348,"average_he":43.3,"carbon_eff":1.81889763403,"density":0.361263469472,"hdb_street":"GEYLANG EAST CTRL","ORIG_FID":348}},
{"type":"Feature","id":349,"geometry":{"type":"Point","coordinates":[103.92279625094254,1.3256005879939496]},"properties":{"FID":349,"average_he":39.6384615385,"carbon_eff":1.77178976843,"density":0.156068169106,"hdb_street":"CHAI CHEE RD","ORIG_FID":349}},
{"type":"Feature","id":350,"geometry":{"type":"Point","coordinates":[103.90798430539822,1.39727517377684]},"properties":{"FID":350,"average_he":48.1222222222,"carbon_eff":1.50471486452,"density":0.119031625593,"hdb_street":"PUNGGOL FIELD","ORIG_FID":350}},
{"type":"Feature","id":351,"geometry":{"type":"Point","coordinates":[103.90802043212447,1.399251935966957]},"properties":{"FID":351,"average_he":48.2411764706,"carbon_eff":1.54235997503,"density":0.0919792669061,"hdb_street":"EDGEFIELD PLAINS","ORIG_FID":351}},
{"type":"Feature","id":352,"geometry":{"type":"Point","coordinates":[103.9102702527034,1.394823074162163]},"properties":{"FID":352,"average_he":49.796,"carbon_eff":1.78559233045,"density":0.143337853359,"hdb_street":"EDGEDALE PLAINS","ORIG_FID":352}},
{"type":"Feature","id":353,"geometry":{"type":"Point","coordinates":[103.91245524791923,1.393097817283823]},"properties":{"FID":353,"average_he":48.9,"carbon_eff":1.60295744776,"density":0.376500052647,"hdb_street":"PUNGGOL FIELD WALK","ORIG_FID":353}},
{"type":"Feature","id":354,"geometry":{"type":"Point","coordinates":[103.91448897662262,1.3944453011835871]},"properties":{"FID":354,"average_he":51.7,"carbon_eff":1.28337766279,"density":0.436570248853,"hdb_street":"PUNGGOL EAST","ORIG_FID":354}},
{"type":"Feature","id":355,"geometry":{"type":"Point","coordinates":[103.90700713307002,1.40316230298941]},"properties":{"FID":355,"average_he":45.1666666667,"carbon_eff":1.71742626341,"density":0.105142674945,"hdb_street":"PUNGGOL RD","ORIG_FID":355}},
{"type":"Feature","id":356,"geometry":{"type":"Point","coordinates":[103.90444293137801,1.4038838224397496]},"properties":{"FID":356,"average_he":45.75,"carbon_eff":1.69450596741,"density":0.178233629941,"hdb_street":"PUNGGOL PL","ORIG_FID":356}},
{"type":"Feature","id":357,"geometry":{"type":"Point","coordinates":[103.9119440362373,1.403422754890609]},"properties":{"FID":357,"average_he":47.22,"carbon_eff":1.48910106849,"density":0.15043433497,"hdb_street":"PUNGGOL DR","ORIG_FID":357}},
{"type":"Feature","id":358,"geometry":{"type":"Point","coordinates":[103.81799299764303,1.4464964911039602]},"properties":{"FID":358,"average_he":45.1666666667,"carbon_eff":1.62100535566,"density":0.183937514387,"hdb_street":"SEMBAWANG CL","ORIG_FID":358}},
{"type":"Feature","id":359,"geometry":{"type":"Point","coordinates":[103.8173155192499,1.445813433412]},"properties":{"FID":359,"average_he":44.7,"carbon_eff":1.80473871075,"density":0.0981613608116,"hdb_street":"SEMBAWANG CRES","ORIG_FID":359}},
{"type":"Feature","id":360,"geometry":{"type":"Point","coordinates":[103.83834459558604,1.35052352650146]},"properties":{"FID":360,"average_he":29.7307692308,"carbon_eff":2.0587738118,"density":0.368094580922,"hdb_street":"SHUNFU RD","ORIG_FID":360}},
{"type":"Feature","id":361,"geometry":{"type":"Point","coordinates":[103.76564783227874,1.3799555747659873]},"properties":{"FID":361,"average_he":65.7,"carbon_eff":1.84471402019,"density":0.20189254873,"hdb_street":"LOMPANG RD","ORIG_FID":361}},
{"type":"Feature","id":362,"geometry":{"type":"Point","coordinates":[103.76291887909268,1.379571544248043]},"properties":{"FID":362,"average_he":84.6,"carbon_eff":2.16334475135,"density":0.282197831279,"hdb_street":"JELEBU RD","ORIG_FID":362}},
{"type":"Feature","id":363,"geometry":{"type":"Point","coordinates":[103.76961748683138,1.3834404962223599]},"properties":{"FID":363,"average_he":35.4185185185,"carbon_eff":1.68489780342,"density":0.152886046742,"hdb_street":"FAJAR RD","ORIG_FID":363}},
{"type":"Feature","id":364,"geometry":{"type":"Point","coordinates":[103.76828462119518,1.382835497676635]},"properties":{"FID":364,"average_he":30,"carbon_eff":1.79373165605,"density":0.357093422582,"hdb_street":"SAUJANA RD","ORIG_FID":364}},
{"type":"Feature","id":365,"geometry":{"type":"Point","coordinates":[103.77211779586224,1.3882010072574311]},"properties":{"FID":365,"average_he":44.6481481481,"carbon_eff":1.80759753843,"density":0.272123003765,"hdb_street":"SEGAR RD","ORIG_FID":365}},
{"type":"Feature","id":366,"geometry":{"type":"Point","coordinates":[103.76688961811837,1.3858349272676522]},"properties":{"FID":366,"average_he":51,"carbon_eff":1.49449895819,"density":0.123381673948,"hdb_street":"JELAPANG RD","ORIG_FID":366}},
{"type":"Feature","id":367,"geometry":{"type":"Point","coordinates":[103.74844328219702,1.319587322303918]},"properties":{"FID":367,"average_he":42.6,"carbon_eff":1.77404529729,"density":0.163047513292,"hdb_street":"PANDAN GDNS","ORIG_FID":367}},
{"type":"Feature","id":368,"geometry":{"type":"Point","coordinates":[103.77008048085297,1.3742409038334804]},"properties":{"FID":368,"average_he":31.54,"carbon_eff":1.77931267282,"density":0.231682007573,"hdb_street":"CASHEW RD","ORIG_FID":368}},
{"type":"Feature","id":369,"geometry":{"type":"Point","coordinates":[103.74521607863697,1.3990690392114167]},"properties":{"FID":369,"average_he":32.9235294118,"carbon_eff":1.5657015393,"density":0.172161494871,"hdb_street":"CHOA CHU KANG ST 62","ORIG_FID":369}},
{"type":"Feature","id":370,"geometry":{"type":"Point","coordinates":[103.92340535938384,1.3284908434483491]},"properties":{"FID":370,"average_he":39.1,"carbon_eff":2.02228457865,"density":0.131863482417,"hdb_street":"CHAI CHEE ST","ORIG_FID":370}},
{"type":"Feature","id":371,"geometry":{"type":"Point","coordinates":[103.76370994365057,1.3869745470472712]},"properties":{"FID":371,"average_he":57.3,"carbon_eff":1.90991597247,"density":0.468216883187,"hdb_street":"SENJA LINK","ORIG_FID":371}},
{"type":"Feature","id":372,"geometry":{"type":"Point","coordinates":[103.74817702251912,1.3799264022307844]},"properties":{"FID":372,"average_he":37.2333333333,"carbon_eff":2.33957574931,"density":0.0470807759363,"hdb_street":"CHOA CHU KANG AVE 1","ORIG_FID":372}},
{"type":"Feature","id":373,"geometry":{"type":"Point","coordinates":[103.75266422870374,1.378920700856467]},"properties":{"FID":373,"average_he":35.5222222222,"carbon_eff":1.69467607046,"density":0.196686406822,"hdb_street":"TECK WHYE LANE","ORIG_FID":373}},
{"type":"Feature","id":374,"geometry":{"type":"Point","coordinates":[103.7432008355467,1.37823418734661]},"properties":{"FID":374,"average_he":43.6818181818,"carbon_eff":1.34989456355,"density":0.14700955256,"hdb_street":"CHOA CHU KANG AVE 2","ORIG_FID":374}},
{"type":"Feature","id":375,"geometry":{"type":"Point","coordinates":[103.75274451339344,1.3805204621140257]},"properties":{"FID":375,"average_he":39.8,"carbon_eff":1.73186865932,"density":0.091290365534,"hdb_street":"TECK WHYE AVE","ORIG_FID":375}},
{"type":"Feature","id":376,"geometry":{"type":"Point","coordinates":[103.74228904307344,1.3905430491186903]},"properties":{"FID":376,"average_he":38.708,"carbon_eff":1.57425938488,"density":0.157900202285,"hdb_street":"CHOA CHU KANG ST 51","ORIG_FID":376}},
{"type":"Feature","id":377,"geometry":{"type":"Point","coordinates":[103.74698623109052,1.3962556874911158]},"properties":{"FID":377,"average_he":40.5,"carbon_eff":1.59022063159,"density":0.147234727794,"hdb_street":"CHOA CHU KANG NTH 6","ORIG_FID":377}},
{"type":"Feature","id":378,"geometry":{"type":"Point","coordinates":[103.74692756772771,1.400346429039306]},"properties":{"FID":378,"average_he":34.9,"carbon_eff":1.51638870681,"density":0.461203244806,"hdb_street":"CHOA CHU KANG NTH 7","ORIG_FID":378}},
{"type":"Feature","id":379,"geometry":{"type":"Point","coordinates":[103.74907771485243,1.3981415612032575]},"properties":{"FID":379,"average_he":43.3,"carbon_eff":1.45804791747,"density":0.300854917294,"hdb_street":"CHOA CHU KANG ST 64","ORIG_FID":379}},
{"type":"Feature","id":380,"geometry":{"type":"Point","coordinates":[103.74838178474516,1.4025328379343815]},"properties":{"FID":380,"average_he":48.2142857143,"carbon_eff":1.8350213035,"density":0.156787734055,"hdb_street":"CHOA CHU KANG CRES","ORIG_FID":380}},
{"type":"Feature","id":381,"geometry":{"type":"Point","coordinates":[103.74949253717345,1.3997790101720116]},"properties":{"FID":381,"average_he":55.5181818182,"carbon_eff":1.77262930565,"density":0.0470682676669,"hdb_street":"CHOA CHU KANG DR","ORIG_FID":381}},
{"type":"Feature","id":382,"geometry":{"type":"Point","coordinates":[103.74622144862336,1.391021761903793]},"properties":{"FID":382,"average_he":37.7,"carbon_eff":1.86650239463,"density":0.313063571175,"hdb_street":"CHOA CHU KANG ST 53","ORIG_FID":382}},
{"type":"Feature","id":383,"geometry":{"type":"Point","coordinates":[103.74773223790305,1.3929253348761643]},"properties":{"FID":383,"average_he":37.175,"carbon_eff":1.72602406999,"density":0.220551893702,"hdb_street":"CHOA CHU KANG NTH 5","ORIG_FID":383}},
{"type":"Feature","id":384,"geometry":{"type":"Point","coordinates":[103.74994719349587,1.3943517796123919]},"properties":{"FID":384,"average_he":47.22,"carbon_eff":1.49686635624,"density":0.3236208474,"hdb_street":"CHOA CHU KANG ST 54","ORIG_FID":384}},
{"type":"Feature","id":385,"geometry":{"type":"Point","coordinates":[103.84468069561795,1.3276490942675456]},"properties":{"FID":385,"average_he":71.3,"carbon_eff":1.6710564081,"density":0.356921026226,"hdb_street":"AH HOOD RD","ORIG_FID":385}},
{"type":"Feature","id":386,"geometry":{"type":"Point","coordinates":[103.84447837146841,1.3284354129403273]},"properties":{"FID":386,"average_he":36.7666666667,"carbon_eff":1.79423674759,"density":0.324030193017,"hdb_street":"JLN DUSUN","ORIG_FID":386}},
{"type":"Feature","id":387,"geometry":{"type":"Point","coordinates":[103.85219131654803,1.3315933437542846]},"properties":{"FID":387,"average_he":42.6777777778,"carbon_eff":1.66256651716,"density":0.0317961957494,"hdb_street":"JLN RAJAH","ORIG_FID":387}},
{"type":"Feature","id":388,"geometry":{"type":"Point","coordinates":[103.89949722509128,1.3891987963539514]},"properties":{"FID":388,"average_he":44.337037037,"carbon_eff":1.52621507152,"density":0.172540478025,"hdb_street":"COMPASSVALE WALK","ORIG_FID":388}},
{"type":"Feature","id":389,"geometry":{"type":"Point","coordinates":[103.91970749765923,1.3264735160148224]},"properties":{"FID":389,"average_he":29.3,"carbon_eff":1.62394099279,"density":0.326903428124,"hdb_street":"CHAI CHEE DR","ORIG_FID":389}},
{"type":"Feature","id":390,"geometry":{"type":"Point","coordinates":[103.94782777391436,1.3590710286582557]},"properties":{"FID":390,"average_he":39.2555555556,"carbon_eff":0.754713463174,"density":0.0639904680792,"hdb_street":"TAMPINES AVE 9","ORIG_FID":390}},
{"type":"Feature","id":391,"geometry":{"type":"Point","coordinates":[103.86949866201577,1.3211244127367463]},"properties":{"FID":391,"average_he":15.3,"carbon_eff":1.2609105025,"density":0.359449007305,"hdb_street":"KALLANG BAHRU","ORIG_FID":391}},
{"type":"Feature","id":392,"geometry":{"type":"Point","coordinates":[103.85164939755242,1.3165603096059941]},"properties":{"FID":392,"average_he":38.6333333333,"carbon_eff":1.97818334763,"density":0.27044072893,"hdb_street":"KENT RD","ORIG_FID":392}},
{"type":"Feature","id":393,"geometry":{"type":"Point","coordinates":[103.8608705610197,1.3083573670381217]},"properties":{"FID":393,"average_he":51.7,"carbon_eff":1.30990071477,"density":0.685164710706,"hdb_street":"KING GEORGE'S AVE","ORIG_FID":393}},
{"type":"Feature","id":394,"geometry":{"type":"Point","coordinates":[103.85896994968942,1.3075944999459164]},"properties":{"FID":394,"average_he":40.5,"carbon_eff":2.11388003203,"density":1.00000000177,"hdb_street":"MAUDE RD","ORIG_FID":394}},
{"type":"Feature","id":395,"geometry":{"type":"Point","coordinates":[103.86191106677454,1.3070676583365934]},"properties":{"FID":395,"average_he":85.3,"carbon_eff":1.82297259831,"density":0.706043483677,"hdb_street":"JELLICOE RD","ORIG_FID":395}},
{"type":"Feature","id":396,"geometry":{"type":"Point","coordinates":[103.8591307390091,1.307825589262037]},